SR_NUMBER,SR_TYPE,SR_SHORT_CODE,OWNER_DEPARTMENT,STATUS,CREATED_DATE,LAST_MODIFIED_DATE,CLOSED_DATE,STREET_ADDRESS,CITY,STATE,ZIP_CODE,STREET_NUMBER,STREET_DIRECTION,STREET_NAME,STREET_TYPE,DUPLICATE,LEGACY_RECORD,LEGACY_SR_NUMBER,PARENT_SR_NUMBER,COMMUNITY_AREA,WARD,ELECTRICAL_DISTRICT,ELECTRICITY_GRID,POLICE_SECTOR,POLICE_DISTRICT,POLICE_BEAT,PRECINCT,SANITATION_DIVISION_DAYS,CREATED_HOUR,CREATED_DAY_OF_WEEK,CREATED_MONTH,X_COORDINATE,Y_COORDINATE,LATITUDE,LONGITUDE,LOCATION
SR19-01950649,Sanitation Code Violation,SCB,Streets and Sanitation,Completed,07/15/2019 02:00:52 PM,11/26/2019 05:45:51 AM,11/26/2019 05:45:51 AM,,,,,,,,,false,false,,,,,,,,,,,,14,2,7,,,,,
SR19-01293925,Sanitation Code Violation,SCB,Streets and Sanitation,Completed,04/08/2019 02:54:13 PM,02/13/2020 11:16:41 PM,04/24/2019 01:11:33 PM,,,,,,,,,false,false,,,,,,,,,,,,14,2,4,,,,,
SR19-01845329,Sanitation Code Violation,SCB,Streets and Sanitation,Completed,07/02/2019 12:46:26 PM,08/07/2019 12:27:06 PM,08/07/2019 12:27:06 PM,,,,,,,,,false,false,,,,,,,,,,,,12,3,7,,,,,
SR19-01728135,Sanitation Code Violation,SCB,Streets and Sanitation,Completed,06/17/2019 06:31:09 PM,02/14/2020 12:56:44 AM,07/01/2019 11:01:27 AM,,,,,,,,,false,false,,,,,,,,,,,,18,2,6,,,,,
SR19-02446545,Sanitation Code Violation,SCB,Streets and Sanitation,Completed,09/11/2019 09:01:42 AM,11/12/2019 01:42:45 PM,11/12/2019 01:42:45 PM,,,,,,,,,false,false,,,,,,,,,,,,9,4,9,,,,,
SR19-02192137,Sanitation Code Violation,SCB,Streets and Sanitation,Canceled,08/13/2019 11:15:26 AM,09/12/2019 07:55:44 AM,09/12/2019 07:55:44 AM,,,,,,,,,false,false,,,,,,,,,,,,11,3,8,,,,,
SR19-02089716,Sanitation Code Violation,SCB,Streets and Sanitation,Completed,07/31/2019 09:26:08 PM,09/12/2019 07:57:37 AM,09/12/2019 07:57:37 AM,,,,,,,,,false,false,,,,,,,,,,,,21,4,7,,,,,
SR19-02208604,Sanitation Code Violation,SCB,Streets and Sanitation,Completed,08/14/2019 08:33:56 PM,11/12/2019 03:24:49 PM,11/12/2019 03:24:49 PM,,,,,,,,,false,false,,,,,,,,,,,,20,4,8,,,,,
SR19-02379227,Sanitation Code Violation,SCB,Streets and Sanitation,Completed,09/03/2019 06:18:00 PM,09/11/2019 08:29:41 AM,09/11/2019 08:29:41 AM,,,,,,,,,false,false,,,,,,,,,,,,18,3,9,,,,,
SR19-02069646,Sanitation Code Violation,SCB,Streets and Sanitation,Completed,07/30/2019 07:18:04 AM,09/11/2019 08:47:35 AM,09/11/2019 08:47:35 AM,,,,,,,,,false,false,,,,,,,,,,,,7,3,7,,,,,
SR19-02078693,Sanitation Code Violation,SCB,Streets and Sanitation,Completed,07/30/2019 07:55:29 PM,08/14/2019 12:08:28 PM,08/14/2019 12:08:28 PM,,,,,,,,,false,false,,,,,,,,,,,,19,3,7,,,,,
SR19-02245975,Sanitation Code Violation,SCB,Streets and Sanitation,Completed,08/19/2019 02:11:32 PM,12/13/2019 09:10:26 AM,12/13/2019 09:10:26 AM,,,,,,,,,false,false,,,,,,,,,,,,14,2,8,,,,,
SR19-00030459,Sanitation Code Violation,SCB,Streets and Sanitation,Completed,01/07/2019 08:52:43 PM,02/13/2020 06:17:56 PM,03/15/2019 08:13:45 AM,,,,,,,,,false,false,,,,,,,,,,,,20,2,1,,,,,
SR19-00156963,Sanitation Code Violation,SCB,Streets and Sanitation,Completed,02/04/2019 07:19:04 AM,02/13/2020 06:35:28 PM,03/15/2019 01:29:57 PM,4836 W 19TH ST,,,,4836,W,19TH,ST,false,false,,,,,,,,,,,,7,2,2,,,,,
SR19-02746553,Sanitation Code Violation,SCB,Streets and Sanitation,Completed,10/17/2019 11:17:43 AM,11/26/2019 11:40:44 AM,11/26/2019 11:40:44 AM,,,,,,,,,false,false,,,,,,,,,,,,11,5,10,,,,,
SR19-00021588,Sanitation Code Violation,SCB,Streets and Sanitation,Completed,01/06/2019 02:37:34 AM,02/13/2020 06:15:54 PM,03/20/2019 06:58:26 AM,5199 S Cicero AVE,,,60632,5199,S,Cicero,AVE,false,false,,,,,,,,,,,,2,1,1,,,,,
SR19-01187358,Sanitation Code Violation,SCB,Streets and Sanitation,Completed,03/19/2019 02:47:43 PM,02/13/2020 10:51:54 PM,07/31/2019 08:10:45 AM,5905 S DAN RYAN EXPY,,,,5905,S,DAN RYAN,EXPY,false,false,,,,,,,,,,,,14,3,3,,,,,
SR19-02205256,Sanitation Code Violation,SCB,Streets and Sanitation,Completed,08/14/2019 01:51:03 PM,11/12/2019 03:52:56 PM,11/12/2019 03:52:56 PM,,,,,,,,,false,false,,,,,,,,,,,,13,4,8,,,,,
SR19-00108194,Sanitation Code Violation,SCB,Streets and Sanitation,Completed,01/23/2019 09:00:29 PM,02/13/2020 06:24:17 PM,03/08/2019 08:05:48 AM,5667 W GIDDINGS ST,,,,5667,W,GIDDINGS,ST,false,false,,,,,,,,,,,,21,4,1,,,,,
SR19-00007936,Sanitation Code Violation,SCB,Streets and Sanitation,Completed,01/02/2019 10:54:03 PM,02/13/2020 06:12:49 PM,03/25/2019 08:28:54 AM,1200 E 7100 PL,,,,1200,E,7100,PL,false,false,,,,,,,,,,,,22,4,1,,,,,
SR19-02678178,Sanitation Code Violation,SCB,Streets and Sanitation,Completed,10/08/2019 03:10:20 PM,11/26/2019 03:49:24 PM,11/26/2019 03:49:24 PM,,,,,,,,,false,false,,,,,,,,,,,,15,3,10,,,,,
SR19-00968966,Sanitation Code Violation,SCB,Streets and Sanitation,Completed,02/06/2019 11:51:58 AM,06/30/2020 11:28:36 PM,01/17/2020 04:02:59 PM,7546–56 S Coles AVE,,,60649,7546–56,S,Coles,AVE,false,false,,,,,,,,,,,,11,4,2,,,,,
SR19-00973017,Sanitation Code Violation,SCB,Streets and Sanitation,Completed,02/06/2019 10:26:54 PM,02/13/2020 09:58:36 PM,03/18/2019 10:08:56 AM,2 S 6836 S. Rockwell St. ST,,,60629,2,S,6836 S. Rockwell St.,ST,false,false,,,,,,,,,,,,22,4,2,,,,,
SR19-00053669,Sanitation Code Violation,SCB,Streets and Sanitation,Completed,01/11/2019 02:52:49 PM,02/13/2020 05:51:43 PM,03/20/2019 02:23:16 PM,4095 S vincennes AVE,,,60615,4095,S,vincennes,AVE,false,false,,,,,,,,,,,,14,6,1,,,,,
SR19-01329575,Sanitation Code Violation,SCB,Streets and Sanitation,Completed,04/15/2019 08:34:46 AM,02/13/2020 11:24:50 PM,05/02/2019 02:01:15 PM,,,,,,,,,false,false,,,,,,,,,,,,8,2,4,,,,,
SR19-00962197,Sanitation Code Violation,SCB,Streets and Sanitation,Completed,02/05/2019 10:54:05 AM,02/13/2020 09:56:05 PM,03/20/2019 09:29:47 AM,5225 S parnell AVE,,,,5225,S,parnell,AVE,false,false,,,,,,,,,,,,10,3,2,,,,,
SR19-00967254,Sanitation Code Violation,SCB,Streets and Sanitation,Completed,02/06/2019 08:33:29 AM,02/13/2020 09:57:14 PM,01/17/2020 04:00:38 PM,1200 W FULTON ST,,,,1200,W,FULTON,ST,false,false,,,,,,,,,,,,8,4,2,,,,,
SR19-01070188,Sanitation Code Violation,SCB,Streets and Sanitation,Completed,02/25/2019 04:01:49 PM,02/13/2020 10:25:11 PM,03/17/2019 10:59:40 AM,248 W WEST END AVE,,,,248,W,WEST END,AVE,false,false,,,,,,,,,,,,16,2,2,,,,,
SR19-01146360,Sanitation Code Violation,SCB,Streets and Sanitation,Completed,03/12/2019 03:21:39 PM,02/13/2020 10:42:25 PM,03/15/2019 01:53:41 PM,8854 S WHIPPLE ST,,,,8854,S,WHIPPLE,ST,false,false,,,,,,,,,,,,15,3,3,,,,,
SR19-01221690,Sanitation Code Violation,SCB,Streets and Sanitation,Completed,03/26/2019 09:09:01 AM,02/13/2020 10:59:44 PM,04/01/2019 11:46:33 AM,1709 N lincoln park west ST,,,,1709,N,lincoln park west,ST,false,false,,,,,,,,,,,,9,3,3,,,,,
SR19-01170187,Sanitation Code Violation,SCB,Streets and Sanitation,Completed,03/16/2019 11:02:31 AM,02/13/2020 10:47:57 PM,03/20/2019 10:17:47 AM,358 W CORTLAND AVE,,,,358,W,CORTLAND,AVE,false,false,,,,,,,,,,,,11,7,3,,,,,
SR19-01192615,Sanitation Code Violation,SCB,Streets and Sanitation,Completed,03/20/2019 12:53:56 PM,02/13/2020 10:53:02 PM,04/01/2019 11:09:55 AM,4419 W QUINCY AVE,,,60624,4419,W,QUINCY,AVE,false,false,,,,,,,,,,,,12,4,3,,,,,
SR19-01267702,Sanitation Code Violation,SCB,Streets and Sanitation,Completed,04/03/2019 05:08:27 PM,02/13/2020 11:10:27 PM,04/18/2019 07:12:41 AM,4003 N KENNEDY EXPY,,,,4003,N,KENNEDY,EXPY,false,false,,,,,,,,,,,,17,4,4,,,,,
SR19-01728503,Sanitation Code Violation,SCB,Streets and Sanitation,Completed,06/17/2019 07:43:14 PM,02/14/2020 12:56:46 AM,06/24/2019 09:57:56 AM,,,,,,,,,false,false,,,,,,,,,,,,19,2,6,,,,,
SR19-01516296,Sanitation Code Violation,SCB,Streets and Sanitation,Completed,05/18/2019 09:39:30 AM,02/14/2020 12:14:08 AM,06/26/2019 10:49:44 AM,,,,,,,,,false,false,,,,,,,,,,,,9,7,5,,,,,
SR19-01506929,Sanitation Code Violation,SCB,Streets and Sanitation,Completed,05/16/2019 07:45:18 PM,02/14/2020 12:11:58 AM,06/04/2019 10:09:27 AM,,,,,,,,,false,false,,,,,,,,,,,,19,5,5,,,,,
SR19-02195089,Sanitation Code Violation,SCB,Streets and Sanitation,Completed,08/13/2019 02:31:17 PM,06/30/2020 10:11:52 PM,08/15/2019 08:39:49 AM,,,,,,,,,true,false,,SR19-02156350,,,,,,,,,,14,3,8,,,,,
SR19-01460639,Sanitation Code Violation,SCB,Streets and Sanitation,Completed,05/09/2019 11:22:15 AM,02/13/2020 11:55:16 PM,08/14/2019 08:21:50 AM,,,,,,,,,false,false,,,,,,,,,,,,11,5,5,,,,,
SR19-01413516,Sanitation Code Violation,SCB,Streets and Sanitation,Completed,04/30/2019 07:15:35 PM,02/13/2020 11:44:12 PM,05/13/2019 11:01:24 AM,,,,,,,,,false,false,,,,,,,,,,,,19,3,4,,,,,
SR19-01558489,Sanitation Code Violation,SCB,Streets and Sanitation,Completed,05/24/2019 01:48:47 PM,02/13/2020 11:58:37 PM,08/14/2019 08:11:29 AM,,,,,,,,,false,false,,,,,,,,,,,,13,6,5,,,,,
SR19-01453667,Sanitation Code Violation,SCB,Streets and Sanitation,Completed,05/08/2019 12:15:09 PM,02/13/2020 11:53:39 PM,06/24/2019 10:36:49 AM,,,,,,,,,false,false,,,,,,,,,,,,12,4,5,,,,,
SR19-01609440,Sanitation Code Violation,SCB,Streets and Sanitation,Completed,06/01/2019 12:03:35 PM,02/14/2020 12:29:49 AM,06/17/2019 11:34:34 AM,,,,,,,,,false,false,,,,,,,,,,,,12,7,6,,,,,
SR19-01426899,Sanitation Code Violation,SCB,Streets and Sanitation,Completed,05/03/2019 08:29:52 AM,02/13/2020 11:47:24 PM,06/04/2019 12:00:07 PM,,,,,,,,,false,false,,,,,,,,,,,,8,6,5,,,,,
SR19-01578437,Sanitation Code Violation,SCB,Streets and Sanitation,Completed,05/28/2019 12:03:11 PM,02/14/2020 12:22:50 AM,06/17/2019 10:24:23 AM,,,,,,,,,false,false,,,,,,,,,,,,12,3,5,,,,,
SR19-01545526,Sanitation Code Violation,SCB,Streets and Sanitation,Completed,05/22/2019 09:39:03 PM,02/14/2020 12:20:53 AM,06/04/2019 09:29:34 AM,,,,,,,,,false,false,,,,,,,,,,,,21,4,5,,,,,
SR19-01088180,Sanitation Code Violation,SCB,Streets and Sanitation,Completed,02/28/2019 01:25:20 PM,02/13/2020 10:29:16 PM,03/10/2019 03:24:30 PM,240 S GREEN ST,,,60607,240,S,GREEN,ST,false,false,,,28,27,7,N023,3,12,1232,45,Friday,13,5,2,1170737.689517,1899118.875261,41.878671216,-87.648551434,"(41.87867121634885, -87.6485514344372)"
SR19-01104126,Sanitation Code Violation,SCB,Streets and Sanitation,Completed,03/04/2019 11:11:54 AM,02/13/2020 10:32:48 PM,04/16/2019 06:35:34 AM,1569 N HOYNE AVE,,,60622,1569,N,HOYNE,AVE,false,false,,,24,1,5,K019,2,14,1424,8,Thursday,11,2,3,1162220.186288,1910544.237061,41.910205556,-87.679506236,"(41.91020555553965, -87.67950623619558)"
SR19-01178352,Sanitation Code Violation,SCB,Streets and Sanitation,Completed,03/18/2019 11:04:34 AM,02/13/2020 10:49:48 PM,04/12/2019 10:24:16 AM,749 E 104TH PL,,,60628,749,E,104TH,PL,false,false,,,50,9,,R047,1,05,0512,1,,11,2,3,1183077.703501,1835755.915149,41.704518681,-87.605212425,"(41.70451868086586, -87.60521242540334)"
SR19-01185090,Sanitation Code Violation,SCB,Streets and Sanitation,Completed,03/19/2019 10:51:20 AM,02/13/2020 10:51:20 PM,03/21/2019 01:05:04 PM,4237 N MEADE AVE,,,60634,4237,N,MEADE,AVE,false,false,,,15,38,,A012,2,16,1624,21,,10,3,3,1134997.392977,1927681.376827,41.957757669,-87.779106379,"(41.957757668766746, -87.77910637870474)"
SR19-01298931,Sanitation Code Violation,SCB,Streets and Sanitation,Completed,04/09/2019 12:02:31 PM,02/13/2020 11:17:49 PM,04/10/2019 06:03:53 AM,75 E ELM ST,,,60611,75,E,ELM,ST,false,false,,,8,2,,Q020,2,18,1824,34,,12,3,4,1176830.109199,1908038.580373,41.90301178,-87.625911506,"(41.903011779839005, -87.6259115058451)"
SR19-01319192,Sanitation Code Violation,SCB,Streets and Sanitation,Completed,04/12/2019 12:52:30 PM,02/13/2020 11:22:28 PM,04/15/2019 10:02:11 AM,5958 W WASHINGTON BLVD,,,60644,5958,W,WASHINGTON,BLVD,false,false,,,25,29,,B022,1,15,1513,,,12,6,4,1136367.831892,1900123.316744,41.882110713,-87.774728036,"(41.882110712967695, -87.77472803588465)"
SR19-01332208,Sanitation Code Violation,SCB,Streets and Sanitation,Completed,04/15/2019 01:34:17 PM,02/13/2020 11:25:27 PM,04/25/2019 09:26:41 PM,7946 S BISHOP ST,,,60620,7946,S,BISHOP,ST,false,false,,,71,21,,M041,1,06,0612,30,,13,2,4,1168043.061624,1851840.838241,41.748993763,-87.659806105,"(41.74899376288439, -87.65980610510358)"
SR19-01333052,Sanitation Code Violation,SCB,Streets and Sanitation,Completed,04/15/2019 03:41:38 PM,02/13/2020 11:25:38 PM,04/16/2019 02:18:36 PM,5704 N ORIOLE AVE,,,60631,5704,N,ORIOLE,AVE,false,false,,,10,41,,W108,1,16,1612,41,,15,2,4,1124594.144684,1937105.617279,41.983797093,-87.817144312,"(41.98379709259477, -87.81714431165388)"
SR19-01414910,Sanitation Code Violation,SCB,Streets and Sanitation,Completed,05/01/2019 07:09:56 AM,02/13/2020 11:44:32 PM,05/10/2019 02:14:56 PM,3051 S LYMAN ST,,,60608,3051,S,LYMAN,ST,true,false,,SR19-01399118,60,11,,M028,1,09,0913,8,,7,4,5,1168395.392528,1884482.037801,41.838557448,-87.657574822,"(41.83855744817522, -87.6575748216114)"
SR19-01535599,Sanitation Code Violation,SCB,Streets and Sanitation,Completed,05/21/2019 04:19:23 PM,02/14/2020 12:18:33 AM,05/23/2019 02:02:04 PM,4720 W WAVELAND AVE,,,60641,4720,W,WAVELAND,AVE,false,false,,,15,30,,E013,3,17,1731,20,,16,3,5,1144149.01406,1924241.131854,41.948149992,-87.745548234,"(41.94814999205537, -87.74554823355984)"
SR19-01577232,Sanitation Code Violation,SCB,Streets and Sanitation,Completed,05/28/2019 10:34:37 AM,02/14/2020 12:03:16 AM,05/28/2019 11:31:22 AM,2212 S KEELER AVE,,,60623,2212,S,KEELER,AVE,false,false,,,29,22,,F027,1,10,1013,21,,10,3,5,1148671.029152,1888885.436692,41.85104398,-87.729840323,"(41.85104397996656, -87.72984032349359)"
SR19-01622760,Sanitation Code Violation,SCB,Streets and Sanitation,Completed,06/03/2019 04:05:33 PM,02/14/2020 12:32:53 AM,06/28/2019 09:41:33 AM,1404 E 76TH ST,,,60619,1404,E,76TH,ST,false,false,,,43,8,,T040,1,04,0411,2,,16,2,6,1186960.891278,1854968.038255,41.757147824,-87.5903857,"(41.75714782416786, -87.59038569982168)"
SR19-01655733,Sanitation Code Violation,SCB,Streets and Sanitation,Completed,06/07/2019 02:02:57 PM,02/14/2020 12:40:24 AM,06/11/2019 07:40:03 AM,3701 W 85TH ST,,,60652,3701,W,85TH,ST,false,false,,,70,18,,G042,3,08,0834,7,,14,6,6,1153159.520927,1847885.496373,41.738446393,-87.714449782,"(41.73844639266352, -87.71444978172465)"
SR19-01679048,Sanitation Code Violation,SCB,Streets and Sanitation,Completed,06/11/2019 10:37:47 AM,02/14/2020 12:45:42 AM,07/03/2019 10:48:22 AM,2408 E 97TH ST,,,60617,2408,E,97TH,ST,false,false,,,51,10,,W045,3,04,0431,15,,10,3,6,1193889.015274,1841176.260826,41.719134994,-87.565446653,"(41.71913499357282, -87.56544665340469)"
SR19-01686334,Sanitation Code Violation,SCB,Streets and Sanitation,Completed,06/12/2019 08:16:44 AM,02/14/2020 12:47:21 AM,06/13/2019 01:36:04 PM,4734 W PALMER ST,,,60639,4734,W,PALMER,ST,false,false,,,19,36,,E017,2,25,2522,11,,8,4,6,1144318.724883,1914272.409827,41.920791674,-87.745175791,"(41.92079167355263, -87.74517579070769)"
SR19-01705202,Sanitation Code Violation,SCB,Streets and Sanitation,Completed,06/14/2019 09:44:52 AM,02/14/2020 12:51:35 AM,06/26/2019 07:03:10 AM,5111 S MENARD AVE,,,60638,5111,S,MENARD,AVE,false,false,,,56,14,,B034,1,08,0811,9,,9,6,6,1138634.298553,1870062.439429,41.799578352,-87.767133122,"(41.799578351569764, -87.76713312249798)"
SR19-01732598,Sanitation Code Violation,SCB,Streets and Sanitation,Completed,06/18/2019 10:59:46 AM,02/14/2020 12:57:44 AM,06/26/2019 11:46:31 AM,3710 N KOSTNER AVE,,,60641,3710,N,KOSTNER,AVE,false,false,,,16,45,,E013,3,17,1731,6,,10,3,6,1146116.38757,1924362.558156,41.948445946,-87.738313416,"(41.94844594561539, -87.73831341619295)"
SR19-01735654,Sanitation Code Violation,SCB,Streets and Sanitation,Completed,06/18/2019 02:55:25 PM,02/14/2020 12:58:24 AM,06/20/2019 04:14:53 AM,3114 W WALTON ST,,,60622,3114,W,WALTON,ST,false,false,,,23,26,,I020,1,12,1211,10,,14,3,6,1155325.807594,1906227.777496,41.898502225,-87.704949701,"(41.89850222510067, -87.70494970088518)"
SR19-01760890,Sanitation Code Violation,SCB,Streets and Sanitation,Completed,06/21/2019 10:49:17 AM,07/10/2019 06:19:36 PM,07/10/2019 06:19:36 PM,1145 N AVERS AVE,,,60651,1145,N,AVERS,AVE,false,false,,,23,27,,G020,1,11,1112,24,,10,6,6,1150571.893266,1907541.787914,41.902202223,-87.722376268,"(41.902202222618214, -87.72237626758793)"
SR19-01790654,Sanitation Code Violation,SCB,Streets and Sanitation,Completed,06/25/2019 12:48:01 PM,07/13/2019 09:41:43 PM,07/13/2019 09:41:43 PM,8739 S WOOD ST,,,60620,8739,S,WOOD,ST,false,false,,,71,21,,L043,2,22,2221,3,,12,3,6,1165961.203605,1846535.398615,41.734479323,-87.667585244,"(41.73447932330778, -87.66758524374058)"
SR19-01821147,Sanitation Code Violation,SCB,Streets and Sanitation,Completed,06/28/2019 06:21:56 PM,07/03/2019 01:54:12 PM,07/03/2019 01:54:12 PM,240 W 57TH ST,,,60621,240,W,57TH,ST,false,false,,,68,3,,P035,1,07,0711,36,,18,6,6,1175456.24208,1867216.893033,41.79102495,-87.632182153,"(41.79102494963299, -87.63218215349794)"
SR19-01833136,Sanitation Code Violation,SCB,Streets and Sanitation,Completed,07/01/2019 09:24:56 AM,08/29/2019 12:08:48 PM,08/29/2019 12:08:48 PM,2942 E 87TH ST,,,60617,2942,E,87TH,ST,false,false,,,46,10,,X042,2,04,0423,27,,9,2,7,1197459.036315,1847936.310501,41.737597012,-87.55214638,"(41.73759701217232, -87.55214637979552)"
SR19-01848824,Sanitation Code Violation,SCB,Streets and Sanitation,Completed,07/02/2019 08:43:43 PM,07/12/2019 07:27:24 AM,07/12/2019 07:27:24 AM,2143 W 51ST ST,,,60609,2143,W,51ST,ST,false,false,,,61,16,,K034,3,09,0932,7,,20,3,7,1162793.64167,1870729.288596,41.800937414,-87.678515031,"(41.80093741361199, -87.67851503066878)"
SR19-01852446,Sanitation Code Violation,SCB,Streets and Sanitation,Completed,07/03/2019 10:41:08 AM,07/21/2019 12:50:28 PM,07/21/2019 12:50:28 PM,3610 W CHICAGO AVE,,,60651,3610,W,CHICAGO,AVE,false,false,,,23,27,,G020,1,11,1112,22,,10,4,7,1152094.832021,1905165.308108,41.89565103,-87.716844977,"(41.89565102996024, -87.71684497725764)"
SR19-01899699,Sanitation Code Violation,SCB,Streets and Sanitation,Completed,07/09/2019 01:55:47 PM,07/11/2019 05:10:31 AM,07/11/2019 05:10:31 AM,6916 N CLARK ST,,,60626,6916,N,CLARK,ST,false,false,,,1,49,,L005,2,24,2424,10,,13,3,7,1163480.581424,1945854.294325,42.007071547,-87.673877809,"(42.007071546990566, -87.67387780903992)"
SR19-01912963,Sanitation Code Violation,SCB,Streets and Sanitation,Completed,07/10/2019 04:36:47 PM,07/29/2019 01:27:14 PM,07/29/2019 01:27:14 PM,1305 W 73RD ST,,,60636,1305,W,73RD,ST,false,false,,,67,17,,M039,3,07,0734,5,,16,4,7,1168627.464649,1856346.951023,41.761346571,-87.657534923,"(41.761346571179736, -87.65753492340015)"
SR19-01918789,Sanitation Code Violation,SCB,Streets and Sanitation,Completed,07/11/2019 10:44:00 AM,07/12/2019 08:51:50 AM,07/12/2019 08:51:50 AM,3343 S HALSTED ST,,,60608,3343,S,HALSTED,ST,false,false,,,60,11,,O029,1,09,0915,26,,10,5,7,1171571.767129,1882543.732402,41.833169398,-87.645976092,"(41.833169397825024, -87.64597609224631)"
SR19-01971076,Sanitation Code Violation,SCB,Streets and Sanitation,Completed,07/17/2019 05:45:56 PM,07/30/2019 06:26:03 PM,07/30/2019 06:26:03 PM,9838 S WENTWORTH AVE,,,60628,9838,S,WENTWORTH,AVE,false,false,,,49,21,,P045,1,05,0511,23,,17,4,7,1176667.132035,1839583.29201,41.715167877,-87.628572129,"(41.71516787694424, -87.62857212880355)"
SR19-01974533,Sanitation Code Violation,SCB,Streets and Sanitation,Completed,07/18/2019 08:54:04 AM,07/21/2019 11:01:20 PM,07/21/2019 11:01:20 PM,6453 S HOYNE AVE,,,60636,6453,S,HOYNE,AVE,false,false,,,67,16,,K037,2,07,0726,3,,8,5,7,1163550.784043,1861630.41068,41.775953055,-87.675993445,"(41.77595305538297, -87.67599344463467)"
SR19-01979699,Sanitation Code Violation,SCB,Streets and Sanitation,Completed,07/18/2019 03:09:32 PM,08/15/2019 12:43:14 PM,08/15/2019 12:43:14 PM,753 S KEDZIE AVE,,,60612,753,S,KEDZIE,AVE,false,false,,,27,24,,I024,3,11,1134,40,,15,5,7,1155248.926809,1896296.911813,41.871252493,-87.705498939,"(41.87125249285297, -87.70549893911446)"
SR19-02013882,Sanitation Code Violation,SCB,Streets and Sanitation,Completed,07/23/2019 07:40:14 AM,07/28/2019 01:12:33 PM,07/28/2019 01:12:33 PM,7124 N IONIA AVE,,,60646,7124,N,IONIA,AVE,false,false,,,12,41,,B005,2,16,1621,47,,7,3,7,1135579.863742,1946959.073543,42.010646981,-87.77650423,"(42.01064698124454, -87.77650423025965)"
SR19-02043435,Sanitation Code Violation,SCB,Streets and Sanitation,Completed,07/26/2019 08:57:49 AM,08/05/2019 08:18:10 AM,08/05/2019 08:18:10 AM,958 N KEYSTONE AVE,,,60651,958,N,KEYSTONE,AVE,false,false,,,23,37,,F020,1,11,1111,7,,8,6,7,1149204.774489,1906367.853267,41.899007433,-87.727428393,"(41.89900743313103, -87.72742839294051)"
SR19-02053794,Sanitation Code Violation,SCB,Streets and Sanitation,Completed,07/27/2019 06:46:29 PM,07/31/2019 08:14:41 AM,07/31/2019 08:14:41 AM,1744 N WESTERN AVE,,,60647,1744,N,WESTERN,AVE,false,false,,,24,1,,J018,3,14,1434,27,,18,7,7,1160078.060763,1911690.638912,41.913395908,-87.687343847,"(41.91339590784785, -87.68734384665773)"
SR19-02062893,Sanitation Code Violation,SCB,Streets and Sanitation,Completed,07/29/2019 11:20:08 AM,08/14/2019 07:27:34 AM,08/14/2019 07:27:34 AM,1322 S TROY ST,,,60623,1322,S,TROY,ST,false,false,,,29,24,,I025,2,10,1022,14,,11,2,7,1155492.545179,1893614.060453,41.863885569,-87.704676653,"(41.86388556916633, -87.70467665295742)"
SR19-02092568,Sanitation Code Violation,SCB,Streets and Sanitation,Completed,08/01/2019 09:23:44 AM,08/14/2019 01:54:10 PM,08/14/2019 01:54:10 PM,7230 S ABERDEEN ST,,,60621,7230,S,ABERDEEN,ST,false,false,,,68,6,,N039,3,07,0733,27,,9,5,8,1170167.172686,1856719.19403,41.762334722,-87.65188096,"(41.76233472190737, -87.65188095971172)"
SR19-02095249,Sanitation Code Violation,SCB,Streets and Sanitation,Completed,08/01/2019 12:31:00 PM,06/30/2020 10:25:33 PM,08/02/2019 06:21:49 AM,3347 N HARDING AVE,,,60618,3347,N,HARDING,AVE,false,false,,,21,30,,G014,3,17,1732,8,,12,5,8,1149547.870464,1922161.295799,41.942339442,-87.725757211,"(41.94233944172122, -87.72575721131842)"
SR19-02136060,Sanitation Code Violation,SCB,Streets and Sanitation,Completed,08/06/2019 01:37:49 PM,08/15/2019 06:46:32 AM,08/15/2019 06:46:32 AM,2000 S PULASKI RD,,,60623,2000,S,PULASKI,RD,false,false,,,29,24,,F026,1,10,1012,37,,13,3,8,1149937.118485,1890084.537558,41.854309951,-87.725162289,"(41.854309951368194, -87.72516228900659)"
SR19-02146073,Sanitation Code Violation,SCB,Streets and Sanitation,Completed,08/07/2019 02:33:14 PM,08/12/2019 06:15:48 AM,08/12/2019 06:15:48 AM,16 S CLARK ST,,,60603,16,S,CLARK,ST,false,false,,,32,42,,P023,2,01,0122,9,,14,4,8,1175443.822913,1900225.112829,41.881602461,-87.631238393,"(41.881602460737646, -87.63123839269224)"
SR19-02188639,Sanitation Code Violation,SCB,Streets and Sanitation,Completed,08/13/2019 01:00:13 AM,08/19/2019 08:39:13 AM,08/19/2019 08:39:13 AM,524 W 127TH PL,,,60628,524,W,127TH,PL,false,false,,,53,9,,O053,2,05,0523,19,,1,3,8,1175077.87309,1820414.161424,41.66260039,-87.634961859,"(41.662600390448645, -87.63496185853063)"
SR19-02194271,Sanitation Code Violation,SCB,Streets and Sanitation,Completed,08/13/2019 01:29:46 PM,08/14/2019 01:43:18 PM,08/14/2019 01:43:18 PM,5013 W PENSACOLA AVE,,,60641,5013,W,PENSACOLA,AVE,false,false,,,15,45,,D012,2,16,1624,14,,13,3,8,1142274.57728,1928364.042061,41.959498694,-87.752335604,"(41.95949869422011, -87.75233560388823)"
SR19-02195441,Sanitation Code Violation,SCB,Streets and Sanitation,Completed,08/13/2019 03:09:17 PM,08/18/2019 12:07:55 PM,08/18/2019 12:07:55 PM,2219 W 47TH ST,,,60609,2219,W,47TH,ST,false,false,,,61,15,,K033,3,09,0931,19,,15,3,8,1162247.255146,1873396.798836,41.808268797,-87.680444514,"(41.80826879717536, -87.68044451361584)"
SR19-02203335,Sanitation Code Violation,SCB,Streets and Sanitation,Completed,08/14/2019 11:45:06 AM,09/18/2019 03:24:18 PM,09/18/2019 03:24:18 PM,5500 S ASHLAND AVE,,,60636,5500,S,ASHLAND,AVE,false,false,,,67,16,,L035,1,07,0715,10,,11,4,8,1166604.197489,1868077.912028,41.793581212,-87.664616037,"(41.79358121199931, -87.66461603742817)"
SR19-02246853,Sanitation Code Violation,SCB,Streets and Sanitation,Completed,08/19/2019 03:26:08 PM,09/03/2019 06:53:10 AM,09/03/2019 06:53:10 AM,8022 S TRIPP AVE,,,60652,8022,S,TRIPP,AVE,false,false,,,70,18,,F041,3,08,0834,30,,15,2,8,1149522.648236,1850835.847351,41.74661368,-87.72769859,"(41.746613679984556, -87.72769859012892)"
SR19-02410292,Sanitation Code Violation,SCB,Streets and Sanitation,Completed,09/06/2019 05:30:33 PM,06/30/2020 10:32:47 PM,09/10/2019 11:19:09 AM,1904 N WESTERN AVE,,,60647,1904,N,WESTERN,AVE,false,false,,,22,1,,J018,3,14,1434,29,,17,6,9,1160052.562186,1912628.93023,41.915971177,-87.687411562,"(41.91597117654734, -87.68741156227006)"
SR19-02536064,Sanitation Code Violation,SCB,Streets and Sanitation,Completed,09/20/2019 02:22:15 PM,06/30/2020 10:21:10 PM,09/22/2019 01:58:22 PM,2800 W LOGAN BLVD,,,60647,2800,W,LOGAN,BLVD,false,false,,,22,32,,I016,1,14,1411,26,,14,6,9,1157212.815656,1917328.491806,41.928925349,-87.697716658,"(41.92892534908469, -87.69771665777091)"
SR19-02553508,Sanitation Code Violation,SCB,Streets and Sanitation,Completed,09/23/2019 11:54:19 AM,09/25/2019 10:07:29 AM,09/25/2019 10:07:29 AM,1527 W WALTON ST,,,60642,1527,W,WALTON,ST,false,false,,,24,1,,M020,1,12,1213,40,,11,2,9,1165924.969995,1906359.210373,41.898643256,-87.666015953,"(41.89864325624684, -87.66601595317346)"
SR19-02571670,Sanitation Code Violation,SCB,Streets and Sanitation,Completed,09/25/2019 10:58:09 AM,10/08/2019 01:31:51 PM,10/08/2019 01:31:51 PM,2706 E 96TH ST,,,60617,2706,E,96TH,ST,false,false,,,51,10,,W045,3,04,0431,6,,10,4,9,1196038.505347,1841903.615784,41.721078042,-87.557549911,"(41.721078041892355, -87.55754991149705)"
SR19-02628527,Sanitation Code Violation,SCB,Streets and Sanitation,Completed,10/02/2019 09:35:04 AM,10/09/2019 01:44:29 PM,10/09/2019 01:44:29 PM,10928 S BUFFALO AVE,,,60617,10928,S,BUFFALO,AVE,false,false,,,52,10,,X048,3,04,0432,23,,9,4,10,1199806.957374,1832966.760063,41.696460512,-87.544047214,"(41.696460512238886, -87.5440472142717)"
SR19-02801975,Sanitation Code Violation,SCB,Streets and Sanitation,Completed,10/24/2019 10:51:43 AM,10/27/2019 01:18:57 PM,10/27/2019 01:18:57 PM,4850 W ADAMS ST,,,60644,4850,W,ADAMS,ST,false,false,,,25,28,,D023,3,15,1533,1,,10,5,10,1143859.744368,1898981.781697,41.87884109,-87.747246013,"(41.8788410896561, -87.74724601260587)"
SR19-02814118,Sanitation Code Violation,SCB,Streets and Sanitation,Completed,10/25/2019 03:56:11 PM,10/31/2019 08:09:26 AM,10/31/2019 08:09:26 AM,901 E 95TH ST,,,60628,901,E,95TH,ST,false,false,,,50,8,,S045,1,05,0511,22,,15,6,10,1183841.6469,1841833.977594,41.721179871,-87.602226024,"(41.721179870985125, -87.60222602381951)"
SR19-02846793,Sanitation Code Violation,SCB,Streets and Sanitation,Completed,10/30/2019 09:43:39 AM,11/01/2019 02:08:49 PM,11/01/2019 02:08:49 PM,1427 W WILLOW ST,,,60642,1427,W,WILLOW,ST,false,false,,,24,2,,M018,3,14,1433,20,,9,4,10,1166744.180665,1912013.923284,41.914142634,-87.662844707,"(41.91414263380109, -87.66284470748964)"
SR19-02912202,Sanitation Code Violation,SCB,Streets and Sanitation,Completed,11/08/2019 04:07:31 PM,11/12/2019 07:02:16 AM,11/12/2019 07:02:16 AM,3208 W WARREN BLVD,,,60624,3208,W,WARREN,BLVD,false,false,,,27,28,,H022,2,11,1123,20,,16,6,11,1154929.957124,1900241.5243,41.882083314,-87.706564245,"(41.88208331357868, -87.70656424524529)"
SR19-02915069,Sanitation Code Violation,SCB,Streets and Sanitation,Completed,11/09/2019 11:29:48 AM,12/19/2019 02:11:10 PM,12/19/2019 02:11:10 PM,1556 W 123RD ST,,,60643,1556,W,123RD,ST,false,false,,,,34,,L051,2,05,0524,51,,11,7,11,1167898.474532,1823178.530709,41.670342952,-87.661155802,"(41.67034295173757, -87.66115580242945)"
SR19-02944261,Sanitation Code Violation,SCB,Streets and Sanitation,Completed,11/14/2019 08:33:02 AM,11/15/2019 01:43:08 PM,11/15/2019 01:43:08 PM,937 W BELMONT AVE,,,60657,937,W,BELMONT,AVE,false,false,,,6,44,,N015,3,19,1933,20,,8,5,11,1169378.019735,1921434.090189,41.939935134,-87.652893842,"(41.939935133587646, -87.6528938421431)"
SR19-02959103,Sanitation Code Violation,SCB,Streets and Sanitation,Completed,11/16/2019 10:41:29 AM,11/20/2019 07:24:43 AM,11/20/2019 07:24:43 AM,1500 S DAMEN AVE,,,60608,1500,S,DAMEN,AVE,false,false,,,28,28,,K025,3,12,1233,19,,10,7,11,1163271.228639,1892681.314272,41.86116617,-87.67614767,"(41.86116616983496, -87.67614767027418)"
SR19-03109163,Sanitation Code Violation,SCB,Streets and Sanitation,Completed,12/10/2019 08:36:44 AM,12/13/2019 09:02:00 AM,12/13/2019 09:02:00 AM,8434 S BAKER AVE,,,60617,8434,S,BAKER,AVE,false,false,,,46,10,,X042,2,04,0424,4,,8,3,12,1198877.366353,1849249.856297,41.741166034,-87.546906145,"(41.74116603409286, -87.54690614470648)"
SR19-03117001,Sanitation Code Violation,SCB,Streets and Sanitation,Completed,12/11/2019 10:24:15 AM,12/12/2019 10:11:10 AM,12/12/2019 10:11:10 AM,1621 N WESTERN AVE,,,60647,1621,N,WESTERN,AVE,false,false,,,24,32,,K018,3,14,1434,2,,10,4,12,1160192.348627,1910815.987414,41.910993435,-87.686948193,"(41.91099343487079, -87.68694819304406)"
SR19-03226176,Sanitation Code Violation,SCB,Streets and Sanitation,Completed,12/30/2019 11:05:17 AM,01/09/2020 05:59:44 AM,01/09/2020 05:59:45 AM,7347 S EMERALD AVE,,,60621,7347,S,EMERALD,AVE,false,false,,,68,6,,O039,3,07,0732,25,,11,2,12,1172587.172,1855960.527102,41.760199895,-87.643033657,"(41.760199895359925, -87.6430336566465)"
SR19-00059230,Sanitation Code Violation,SCB,Streets and Sanitation,Completed,01/13/2019 10:24:40 AM,02/13/2020 05:53:02 PM,03/05/2019 07:11:42 AM,10005 S VAN VLISSINGEN RD,,,60617,10005,S,VAN VLISSINGEN,RD,false,false,,,51,7,15,V046,3,04,0431,38,Thursday,10,1,1,1192176.223486,1839004.534643,41.713217306,-87.571790307,"(41.71321730602187, -87.57179030670619)"
SR19-00061528,Sanitation Code Violation,SCB,Streets and Sanitation,Completed,01/14/2019 06:05:29 AM,02/13/2020 05:53:38 PM,03/05/2019 07:15:37 AM,2660 E 79TH ST,,,60649,2660,E,79TH,ST,false,false,,,43,7,12,W040,2,04,0421,17,Friday,6,2,1,1195514.616497,1853212.792088,41.752124312,-87.559096123,"(41.75212431212598, -87.55909612258309)"
SR19-00061750,Sanitation Code Violation,SCB,Streets and Sanitation,Completed,01/14/2019 07:55:47 AM,02/13/2020 05:53:40 PM,03/05/2019 07:20:01 AM,7740 S YATES BLVD,,,60649,7740,S,YATES,BLVD,false,false,,,43,7,12,W040,2,04,0421,10,Friday,7,2,1,1193536.115746,1853933.574372,41.754150825,-87.566322761,"(41.7541508250219, -87.5663227610626)"
SR19-00064395,Sanitation Code Violation,SCB,Streets and Sanitation,Completed,01/14/2019 02:07:16 PM,02/13/2020 05:54:16 PM,08/27/2019 01:49:50 PM,4401 N AUSTIN AVE,,,60630,4401,N,AUSTIN,AVE,false,false,,,15,38,3,B011,2,16,1624,33,Tuesday,14,2,1,1135566.262873,1928666.180878,41.960449953,-87.77699148,"(41.96044995340163, -87.77699147978655)"
SR19-00090237,Sanitation Code Violation,SCB,Streets and Sanitation,Completed,01/19/2019 05:31:00 PM,02/13/2020 06:20:10 PM,06/14/2019 11:04:46 AM,9946 S ABERDEEN ST,,,60643,9946,S,ABERDEEN,ST,false,false,,,73,34,13,N046,3,22,2232,44,Tuesday,17,7,1,1170735.977904,1838627.806234,41.712677053,-87.650322444,"(41.71267705263995, -87.65032244427888)"
SR19-00101496,Sanitation Code Violation,SCB,Streets and Sanitation,Completed,01/22/2019 03:47:42 PM,02/13/2020 06:22:44 PM,03/11/2019 10:18:06 AM,3514 W EVERGREEN AVE,,,60651,3514,W,EVERGREEN,AVE,false,false,,,23,26,5,H019,2,14,1422,18,Thursday,15,3,1,1152587.416731,1908819.163771,41.905667835,-87.71493908,"(41.905667835071505, -87.71493908016357)"
SR19-00107246,Sanitation Code Violation,SCB,Streets and Sanitation,Completed,01/23/2019 04:49:09 PM,02/13/2020 06:24:04 PM,03/11/2019 10:43:16 AM,1423 N AVERS AVE,,,60651,1423,N,AVERS,AVE,false,false,,,23,26,6,G019,3,25,2535,16,Thursday,16,4,1,1150521.078797,1909320.662676,41.907084623,-87.722516392,"(41.907084622714144, -87.722516391768)"
SR19-00107453,Sanitation Code Violation,SCB,Streets and Sanitation,Completed,01/23/2019 05:24:41 PM,02/13/2020 06:24:06 PM,03/11/2019 10:47:11 AM,3246 W CRYSTAL ST,,,60651,3246,W,CRYSTAL,ST,false,false,,,23,26,5,H019,2,14,1422,41,Thursday,17,4,1,1154303.755132,1908194.431702,41.903919387,-87.708651053,"(41.90391938746133, -87.70865105305703)"
SR19-00109699,Sanitation Code Violation,SCB,Streets and Sanitation,Completed,01/24/2019 09:25:56 AM,02/13/2020 06:24:36 PM,03/11/2019 10:54:32 AM,1646 N SAINT LOUIS AVE,,,60647,1646,N,SAINT LOUIS,AVE,false,false,,,23,26,5,H018,2,14,1422,14,Monday,9,5,1,1152931.892427,1910931.036353,41.911456186,-87.713617646,"(41.91145618591094, -87.71361764628078)"
SR19-00119856,Sanitation Code Violation,SCB,Streets and Sanitation,Completed,01/26/2019 09:16:18 AM,02/13/2020 06:26:55 PM,03/11/2019 11:00:42 AM,3400 W DIVISION ST,,,60651,3400,W,DIVISION,ST,false,false,,,23,26,5,H019,2,11,1121,9,Thursday,9,7,1,1153448.946879,1907788.061078,41.902821307,-87.711801806,"(41.90282130692582, -87.711801806126)"
SR19-00123741,Sanitation Code Violation,SCB,Streets and Sanitation,Completed,01/27/2019 06:08:06 PM,02/13/2020 06:27:46 PM,03/27/2019 02:23:56 PM,2053 N SAWYER AVE,,,60647,2053,N,SAWYER,AVE,false,false,,,22,26,5,H017,1,14,1413,34,Monday,18,1,1,1154245.488128,1913672.978991,41.918954167,-87.708718532,"(41.91895416698979, -87.70871853235286)"
SR19-00127234,Sanitation Code Violation,SCB,Streets and Sanitation,Completed,01/28/2019 01:46:46 PM,02/13/2020 06:28:40 PM,03/27/2019 02:28:05 PM,3518 W DIVISION ST,,,60651,3518,W,DIVISION,ST,false,false,,,23,26,5,H019,2,11,1121,31,Thursday,13,2,1,1152655.076993,1907775.940211,41.902803792,-87.714718174,"(41.9028037923593, -87.71471817408028)"
SR19-00133142,Sanitation Code Violation,SCB,Streets and Sanitation,Completed,01/29/2019 01:27:19 PM,02/13/2020 06:29:59 PM,08/02/2019 05:31:37 AM,2441 W GRANVILLE AVE,,,60659,2441,W,GRANVILLE,AVE,false,false,,,2,50,2,J007,1,24,2413,30,Tuesday,13,3,1,1158748.433538,1941074.593098,41.994054578,-87.691420054,"(41.994054577674525, -87.69142005379845)"
SR19-00135429,Sanitation Code Violation,SCB,Streets and Sanitation,Completed,01/29/2019 07:47:33 PM,02/13/2020 06:30:31 PM,08/02/2019 05:28:05 AM,2441 W GRANVILLE AVE,,,,2441,W,GRANVILLE,AVE,false,false,,,2,50,2,J007,1,24,2413,30,Tuesday,19,3,1,1158748.433538,1941074.593098,41.994054578,-87.691420054,"(41.994054577674525, -87.69142005379845)"
SR19-00136193,Sanitation Code Violation,SCB,Streets and Sanitation,Completed,01/30/2019 01:47:10 AM,02/13/2020 06:30:39 PM,08/02/2019 05:29:15 AM,2441 W GRANVILLE AVE,,,,2441,W,GRANVILLE,AVE,false,false,,,2,50,2,J007,1,24,2413,30,Tuesday,1,4,1,1158748.433538,1941074.593098,41.994054578,-87.691420054,"(41.994054577674525, -87.69142005379845)"
SR19-00136786,Sanitation Code Violation,SCB,Streets and Sanitation,Completed,01/30/2019 07:46:59 AM,02/13/2020 06:30:47 PM,08/02/2019 05:30:21 AM,2441 W GRANVILLE AVE,,,,2441,W,GRANVILLE,AVE,false,false,,,2,50,2,J007,1,24,2413,30,Tuesday,7,4,1,1158748.433538,1941074.593098,41.994054578,-87.691420054,"(41.994054577674525, -87.69142005379845)"
SR19-00155643,Sanitation Code Violation,SCB,Streets and Sanitation,Completed,02/03/2019 06:30:43 PM,02/13/2020 06:35:09 PM,03/11/2019 11:20:46 AM,3248 W CRYSTAL ST,,,60651,3248,W,CRYSTAL,ST,false,false,,,23,26,5,H019,2,14,1422,41,Thursday,18,1,2,1154281.186562,1908213.753082,41.903972858,-87.708733437,"(41.903972858044284, -87.70873343662048)"
SR19-00156131,Sanitation Code Violation,SCB,Streets and Sanitation,Completed,02/03/2019 09:35:48 PM,02/13/2020 06:35:17 PM,03/05/2019 07:34:53 AM,9300 S JEFFERY AVE,,,60617,9300,S,JEFFERY,AVE,false,false,,,48,7,15,U044,1,04,0413,27,Thursday,21,1,2,1191126.188746,1843665.542248,41.72603301,-87.575485567,"(41.72603301039959, -87.57548556685208)"
SR19-00156970,Sanitation Code Violation,SCB,Streets and Sanitation,Completed,02/04/2019 07:21:03 AM,02/13/2020 06:35:28 PM,04/21/2019 10:04:51 AM,1918 N RIDGEWAY AVE,,,60647,1918,N,RIDGEWAY,AVE,false,false,,,22,26,6,G018,3,25,2535,24,Monday,7,2,2,1150998.142042,1912583.036693,41.916027548,-87.72067832,"(41.91602754847754, -87.7206783198251)"
SR19-00478693,Sanitation Code Violation,SCB,Streets and Sanitation,Completed,02/04/2019 04:35:50 PM,02/13/2020 07:55:37 PM,04/21/2019 10:07:26 AM,1343 N MAPLEWOOD AVE,,,60622,1343,N,MAPLEWOOD,AVE,false,false,,,24,26,5,J019,2,14,1423,48,Thursday,16,2,2,1159166.313022,1909023.618714,41.906096188,-87.690766822,"(41.90609618848722, -87.69076682167233)"
SR19-00961180,Sanitation Code Violation,SCB,Streets and Sanitation,Completed,02/05/2019 09:14:24 AM,02/13/2020 09:55:51 PM,03/05/2019 07:54:30 AM,7134 S YATES BLVD,,,60649,7134,S,YATES,BLVD,false,false,,,43,7,12,W039,3,03,0334,5,Friday,9,3,2,1193442.196391,1857940.024029,41.765147132,-87.566536065,"(41.76514713184334, -87.56653606540993)"
SR19-00962055,Sanitation Code Violation,SCB,Streets and Sanitation,Completed,02/05/2019 10:42:28 AM,02/13/2020 09:56:02 PM,03/06/2019 04:05:02 PM,612 S WABASH AVE,,,60605,612,S,WABASH,AVE,false,false,,,32,4,7,Q024,2,01,0123,21,Tuesday,10,3,2,1176778.142121,1897461.357062,41.873988495,-87.626422458,"(41.87398849549718, -87.62642245849192)"
SR19-00963636,Sanitation Code Violation,SCB,Streets and Sanitation,Completed,02/05/2019 01:56:56 PM,02/13/2020 09:56:25 PM,03/18/2019 10:50:34 AM,1829 N LAWNDALE AVE,,,60647,1829,N,LAWNDALE,AVE,false,false,,,22,1,6,G018,3,25,2535,26,Monday,13,3,2,1151493.332416,1912048.109117,41.914549937,-87.718873088,"(41.914549936998505, -87.71887308759587)"
SR19-00969083,Sanitation Code Violation,SCB,Streets and Sanitation,Completed,02/06/2019 12:04:48 PM,02/13/2020 09:57:39 PM,03/05/2019 07:58:36 AM,2612 E 79TH ST,,,60649,2612,E,79TH,ST,false,false,,,46,7,12,W040,2,04,0422,17,Friday,12,4,2,1195035.770927,1853103.663331,41.751836665,-87.560854434,"(41.75183666547522, -87.56085443379365)"
SR19-00975661,Sanitation Code Violation,SCB,Streets and Sanitation,Completed,02/07/2019 11:50:02 AM,02/13/2020 09:59:12 PM,03/05/2019 08:03:16 AM,7813 S KINGSTON AVE,,,60649,7813,S,KINGSTON,AVE,false,false,,,43,7,12,W040,2,04,0421,16,Friday,11,5,2,1194626.560936,1853581.039208,41.753156695,-87.562338294,"(41.75315669454398, -87.56233829373616)"
SR19-00981188,Sanitation Code Violation,SCB,Streets and Sanitation,Completed,02/08/2019 10:25:40 AM,02/13/2020 10:00:35 PM,06/14/2019 09:29:09 AM,241 W 109TH PL,,,60628,241,W,109TH,PL,false,false,,,49,34,14,P048,1,05,0513,28,Tuesday,10,6,2,1176448.897986,1832312.628984,41.69522104,-87.629589005,"(41.69522103962717, -87.62958900535331)"
SR19-00982004,Sanitation Code Violation,SCB,Streets and Sanitation,Completed,02/08/2019 12:03:56 PM,02/13/2020 10:00:46 PM,04/21/2019 10:14:18 AM,1256 N CAMPBELL AVE,,,60622,1256,N,CAMPBELL,AVE,false,false,,,24,26,5,J019,2,14,1423,48,Thursday,12,6,2,1159495.00273,1908510.548324,41.904681519,-87.689573565,"(41.90468151923307, -87.68957356493199)"
SR19-00988651,Sanitation Code Violation,SCB,Streets and Sanitation,Completed,02/10/2019 05:36:34 AM,02/13/2020 10:02:21 PM,03/01/2019 10:15:37 AM,442 W 76TH ST,,,60620,442,W,76TH,ST,false,false,,,69,17,11,O040,2,06,0621,15,Tuesday,5,1,2,1174482.104228,1854541.232369,41.756263242,-87.636130878,"(41.756263241842156, -87.63613087838995)"
SR19-00999912,Sanitation Code Violation,SCB,Streets and Sanitation,Completed,02/12/2019 10:11:20 AM,02/13/2020 10:04:59 PM,03/05/2019 08:14:48 AM,8135 S PHILLIPS AVE,,,60617,8135,S,PHILLIPS,AVE,false,false,,,46,7,12,W041,2,04,0422,23,Friday,10,3,2,1194011.07828,1851350.739715,41.747051685,-87.564666773,"(41.74705168496153, -87.56466677328244)"
SR19-01000574,Sanitation Code Violation,SCB,Streets and Sanitation,Completed,02/12/2019 11:45:21 AM,02/13/2020 10:05:08 PM,03/07/2019 11:59:11 AM,3823 N ALTA VISTA TER,,,,3823,N,ALTA VISTA,TER,false,false,,,6,46,4,N013,2,19,1923,5,Friday,11,3,2,1168398.994206,1925768.188533,41.951849353,-87.656366238,"(41.95184935314894, -87.65636623786074)"
SR19-01000891,Sanitation Code Violation,SCB,Streets and Sanitation,Completed,02/12/2019 12:29:21 PM,06/30/2020 11:33:07 PM,04/10/2019 07:02:22 AM,1501 W SUPERIOR ST,,,60642,1501,W,SUPERIOR,ST,false,false,,,24,1,5,M021,1,12,1215,35,Friday,12,3,2,1166005.105009,1905090.357567,41.895159723,-87.665757886,"(41.89515972251873, -87.66575788569187)"
SR19-01001951,Sanitation Code Violation,SCB,Streets and Sanitation,Completed,02/12/2019 03:28:00 PM,02/13/2020 10:05:29 PM,03/07/2019 12:07:04 PM,4610 N CLIFTON AVE,,,,4610,N,CLIFTON,AVE,false,false,,,3,46,2,N011,1,19,1913,1,Friday,15,3,2,1167668.676321,1930825.239233,41.965741891,-87.658904563,"(41.96574189123498, -87.658904562704)"
SR19-01002099,Sanitation Code Violation,SCB,Streets and Sanitation,Completed,02/12/2019 03:49:48 PM,02/13/2020 10:05:32 PM,03/05/2019 08:21:38 AM,2677 E 74th ST,,,,2677,E,74th,ST,false,false,,,43,7,12,W039,3,03,0334,9,Friday,15,3,2,1195467.74305,1856823.66164,41.762033964,-87.559148812,"(41.7620339637703, -87.55914881199521)"
SR19-01005577,Sanitation Code Violation,SCB,Streets and Sanitation,Completed,02/13/2019 10:37:42 AM,02/13/2020 10:06:20 PM,02/28/2019 06:15:27 AM,2622 W DIVERSEY AVE,,,60647,2622,W,DIVERSEY,AVE,false,false,,,21,33,4,J015,1,14,1411,5,Tuesday,10,4,2,1158330.992846,1918582.137539,41.932342622,-87.69357333,"(41.93234262188078, -87.69357333045882)"
SR19-01005748,Sanitation Code Violation,SCB,Streets and Sanitation,Completed,02/13/2019 10:55:31 AM,02/13/2020 10:06:23 PM,03/05/2019 08:33:58 AM,7715 S SOUTH SHORE DR,,,60649,7715,S,SOUTH SHORE,DR,false,false,,,43,7,12,X040,2,04,0421,18,Friday,10,4,2,1197176.36701,1854926.494191,41.756785637,-87.552949714,"(41.756785636847525, -87.55294971373395)"
SR19-01008349,Sanitation Code Violation,SCB,Streets and Sanitation,Completed,02/13/2019 04:08:24 PM,02/13/2020 10:07:00 PM,03/10/2019 02:07:18 PM,1021 N DRAKE AVE,,,60651,1021,N,DRAKE,AVE,false,false,,,23,27,5,H020,2,11,1121,29,Thursday,16,4,2,1152596.421788,1906693.349097,41.899834219,-87.71496229,"(41.899834218919395, -87.71496229029495)"
SR19-01010539,Sanitation Code Violation,SCB,Streets and Sanitation,Completed,02/13/2019 11:39:52 PM,02/13/2020 10:07:34 PM,03/11/2019 12:54:19 PM,8044 S MARYLAND AVE,,,60619,8044,S,MARYLAND,AVE,false,false,,,44,8,12,S041,3,06,0631,45,Friday,23,4,2,1183227.43559,1851662.748679,41.748165425,-87.604170732,"(41.74816542543068, -87.6041707322556)"
SR19-01013049,Sanitation Code Violation,SCB,Streets and Sanitation,Completed,02/14/2019 11:39:09 AM,02/13/2020 10:08:27 PM,03/05/2019 09:42:47 AM,7120 S EAST END AVE,,,60649,7120,S,EAST END,AVE,false,false,,,43,7,12,U039,2,03,0324,1,Friday,11,5,2,1188709.65167,1857993.116199,41.765407283,-87.583880274,"(41.76540728313976, -87.58388027416103)"
SR19-01014498,Sanitation Code Violation,SCB,Streets and Sanitation,Completed,02/14/2019 03:18:13 PM,02/13/2020 10:08:55 PM,06/17/2019 02:02:08 PM,10101 S PEORIA ST,,,60643,10101,S,PEORIA,ST,false,false,,,73,34,13,N046,3,22,2232,45,Tuesday,15,5,2,1172200.912763,1837806.839688,41.710392185,-87.644981434,"(41.710392184866265, -87.64498143395949)"
SR19-01014715,Sanitation Code Violation,SCB,Streets and Sanitation,Completed,02/14/2019 03:55:37 PM,02/13/2020 10:08:59 PM,03/28/2019 01:48:56 PM,1716 S MORGAN ST,,,60608,1716,S,MORGAN,ST,false,false,,,31,25,7,N026,3,12,1235,17,Friday,15,5,2,1170067.760507,1891785.546884,41.858562641,-87.651225222,"(41.85856264084704, -87.65122522227955)"
SR19-01017101,Sanitation Code Violation,SCB,Streets and Sanitation,Completed,02/15/2019 07:51:32 AM,02/13/2020 10:09:48 PM,03/12/2019 02:03:44 PM,7110 S EAST END AVE,,,60649,7110,S,EAST END,AVE,false,false,,,43,7,12,U039,2,03,0324,1,Friday,7,6,2,1188634.210871,1858050.297365,41.765565997,-87.584154959,"(41.76556599661071, -87.58415495864037)"
SR19-01017108,Sanitation Code Violation,SCB,Streets and Sanitation,Completed,02/15/2019 07:53:06 AM,06/30/2020 11:30:52 PM,04/21/2019 10:39:37 AM,2130 N PULASKI RD,,,60639,2130,N,PULASKI,RD,false,false,,,20,26,3,F017,2,25,2525,49,Monday,7,6,2,1149293.143852,1914011.037746,41.919979369,-87.726905334,"(41.91997936910012, -87.72690533350325)"
SR19-01017275,Sanitation Code Violation,SCB,Streets and Sanitation,Completed,02/15/2019 08:36:55 AM,02/13/2020 10:09:52 PM,02/28/2019 06:15:28 AM,2622 W DIVERSEY AVE,,,60647,2622,W,DIVERSEY,AVE,true,false,,SR19-01005577,21,33,4,J015,1,14,1411,5,Tuesday,8,6,2,1158330.992846,1918582.137539,41.932342622,-87.69357333,"(41.93234262188078, -87.69357333045882)"
SR19-01017850,Sanitation Code Violation,SCB,Streets and Sanitation,Completed,02/15/2019 10:22:15 AM,02/13/2020 10:10:02 PM,03/12/2019 02:10:34 PM,7750 S COLFAX AVE,,,60649,7750,S,COLFAX,AVE,false,false,,,43,7,12,W040,2,04,0421,16,Friday,10,6,2,1194789.445261,1853852.338706,41.753897154,-87.561732481,"(41.75389715439777, -87.56173248092621)"
SR19-01018534,Sanitation Code Violation,SCB,Streets and Sanitation,Completed,02/15/2019 11:51:59 AM,02/13/2020 10:10:19 PM,03/06/2019 06:08:29 AM,1410 W POLK ST,,,60607,1410,W,POLK,ST,false,false,,,28,28,7,M024,3,12,1231,27,Friday,11,6,2,1167028.836836,1896633.332346,41.871931084,-87.662240888,"(41.87193108357784, -87.662240888287)"
SR19-01020070,Sanitation Code Violation,SCB,Streets and Sanitation,Completed,02/15/2019 03:43:05 PM,02/13/2020 10:10:47 PM,03/13/2019 07:15:05 AM,7300 S YATES BLVD,,,60649,7300,S,YATES,BLVD,false,false,,,43,7,12,V039,3,03,0334,4,Friday,15,6,2,1193442.96556,1856991.229971,41.76254355,-87.566564246,"(41.762543550231676, -87.56656424576123)"
SR19-01020150,Sanitation Code Violation,SCB,Streets and Sanitation,Completed,02/15/2019 03:55:02 PM,02/13/2020 10:10:51 PM,04/21/2019 10:41:28 AM,4012 W ARMITAGE AVE,,,60639,4012,W,ARMITAGE,AVE,false,false,,,20,26,3,F017,2,25,2525,49,Monday,15,6,2,1149227.024742,1913060.874308,41.917373314,-87.727172944,"(41.91737331416205, -87.72717294375792)"
SR19-01021260,Sanitation Code Violation,SCB,Streets and Sanitation,Completed,02/15/2019 10:07:08 PM,02/13/2020 10:11:10 PM,06/12/2019 01:10:23 PM,12043 S LOWE AVE,,,60628,12043,S,LOWE,AVE,false,false,,,53,34,14,O051,2,05,0523,31,Tuesday,22,6,2,1174233.269641,1824829.268781,41.674734913,-87.637922277,"(41.67473491284312, -87.63792227672536)"
SR19-01021752,Sanitation Code Violation,SCB,Streets and Sanitation,Completed,02/16/2019 06:18:45 AM,06/30/2020 11:25:42 PM,03/07/2019 12:19:23 PM,4604 N BEACON ST,,,60640,4604,N,BEACON,ST,false,false,,,3,46,2,M011,1,19,1913,16,Friday,6,7,2,1166130.411606,1930737.40374,41.965533954,-87.664562945,"(41.9655339538619, -87.66456294475424)"
SR19-01021921,Sanitation Code Violation,SCB,Streets and Sanitation,Completed,02/16/2019 07:56:01 AM,02/13/2020 10:11:26 PM,04/21/2019 10:44:36 AM,4001 W NORTH AVE,,,,4001,W,NORTH,AVE,false,false,,,23,26,6,F019,3,25,2534,15,Thursday,7,7,2,1149383.443942,1910229.256238,41.909600047,-87.726671839,"(41.9096000467496, -87.72667183898577)"
SR19-01022208,Sanitation Code Violation,SCB,Streets and Sanitation,Completed,02/16/2019 09:35:15 AM,02/13/2020 10:11:30 PM,03/08/2019 08:15:17 AM,907 W 50TH ST,,,60609,907,W,50TH,ST,false,false,,,61,20,9,N033,3,09,0933,2,Wednesday,9,7,2,1171056.392902,1871610.039271,41.803177559,-87.648186972,"(41.803177558967185, -87.64818697189216)"
SR19-01022209,Sanitation Code Violation,SCB,Streets and Sanitation,Completed,02/16/2019 09:35:49 AM,02/13/2020 10:11:30 PM,03/15/2019 11:10:02 AM,6400 S HARVARD AVE,,,60621,6400,S,HARVARD,AVE,false,false,,,68,20,12,P037,2,07,0722,29,Monday,9,7,2,1175092.534144,1862464.93838,41.777993209,-87.63365757,"(41.77799320932107, -87.63365756991499)"
SR19-01023568,Sanitation Code Violation,SCB,Streets and Sanitation,Completed,02/16/2019 04:50:35 PM,02/13/2020 10:11:58 PM,03/13/2019 07:19:37 AM,2815 E 81ST ST,,,60617,2815,E,81ST,ST,false,false,,,46,7,12,X041,2,04,0422,24,Friday,16,7,2,1196418.598883,1851795.752128,41.748213477,-87.555830423,"(41.74821347708279, -87.55583042312009)"
SR19-01025962,Sanitation Code Violation,SCB,Streets and Sanitation,Completed,02/17/2019 03:06:25 PM,02/13/2020 10:12:46 PM,03/10/2019 01:42:13 PM,727 E 60TH ST,,,60637,727,E,60TH,ST,false,false,,,42,20,12,R036,1,03,0313,14,Monday,15,1,2,1182124.313523,1865298.013984,41.785607541,-87.607791436,"(41.785607541488474, -87.60779143622847)"
SR19-01027008,Sanitation Code Violation,SCB,Streets and Sanitation,Completed,02/17/2019 09:11:58 PM,02/13/2020 10:13:06 PM,03/19/2019 08:14:54 AM,1143 N ROCKWELL ST,,,60622,1143,N,ROCKWELL,ST,false,false,,,24,1,5,J020,1,12,1211,15,Friday,21,1,2,1158953.61863,1907689.850807,41.902440589,-87.691584781,"(41.90244058908853, -87.69158478132165)"
SR19-01027698,Sanitation Code Violation,SCB,Streets and Sanitation,Completed,02/18/2019 06:57:54 AM,02/13/2020 10:13:22 PM,04/21/2019 11:02:53 AM,3128 W WALTON ST,,,60622,3128,W,WALTON,ST,false,false,,,23,26,5,I020,1,12,1211,10,Thursday,6,2,2,1155201.922238,1906228.763526,41.89850742,-87.705404699,"(41.898507419920705, -87.70540469928277)"
SR19-01029655,Sanitation Code Violation,SCB,Streets and Sanitation,Completed,02/18/2019 11:57:11 AM,02/13/2020 10:13:59 PM,03/13/2019 07:26:30 AM,9546 S EUCLID AVE,,,60617,9546,S,EUCLID,AVE,false,false,,,51,7,15,U045,3,04,0431,39,Thursday,11,2,2,1190783.702323,1841841.063936,41.721034724,-87.576798832,"(41.72103472376974, -87.57679883155727)"
SR19-01029849,Sanitation Code Violation,SCB,Streets and Sanitation,Completed,02/18/2019 12:33:03 PM,02/13/2020 10:14:03 PM,03/13/2019 07:33:17 AM,7515 S COLES AVE,,,60649,7515,S,COLES,AVE,false,false,,,43,7,12,W039,2,04,0421,13,Friday,12,2,2,1195846.471692,1855988.612532,41.759733167,-87.557788348,"(41.75973316746953, -87.55778834763868)"
SR19-01030776,Sanitation Code Violation,SCB,Streets and Sanitation,Completed,02/18/2019 02:46:48 PM,02/13/2020 10:14:23 PM,03/08/2019 06:40:51 AM,1919 S HOMAN AVE,,,60623,1919,S,HOMAN,AVE,false,false,,,29,24,7,H026,2,10,1024,9,Friday,14,2,2,1154082.17876,1890287.888713,41.8547864,-87.709942724,"(41.85478640004569, -87.70994272366272)"
SR19-01031474,Sanitation Code Violation,SCB,Streets and Sanitation,Completed,02/18/2019 04:38:43 PM,02/13/2020 10:14:35 PM,03/13/2019 07:44:29 AM,7835 S SAGINAW AVE,,,60649,7835,S,SAGINAW,AVE,false,false,,,43,7,12,W040,2,04,0421,17,Friday,16,2,2,1195379.435672,1853376.481757,41.752576826,-87.559586096,"(41.75257682621775, -87.55958609557484)"
SR19-01031489,Sanitation Code Violation,SCB,Streets and Sanitation,Completed,02/18/2019 04:40:59 PM,02/13/2020 10:14:35 PM,04/21/2019 11:08:04 AM,1614 N HUMBOLDT BLVD,,,60647,1614,N,HUMBOLDT,BLVD,false,false,,,23,26,5,I018,2,14,1421,30,Monday,16,2,2,1155964.683092,1910690.735727,41.91073611,-87.702482594,"(41.910736110099684, -87.70248259357089)"
SR19-01033837,Sanitation Code Violation,SCB,Streets and Sanitation,Completed,02/19/2019 09:22:18 AM,02/13/2020 10:15:25 PM,05/23/2019 06:20:18 AM,2822 W LYNDALE ST,,,60647,2822,W,LYNDALE,ST,false,false,,,22,1,5,I017,1,14,1414,19,Monday,9,3,2,1157082.168455,1914968.962384,41.922453279,-87.698260963,"(41.922453278839306, -87.6982609626873)"
SR19-01035255,Sanitation Code Violation,SCB,Streets and Sanitation,Completed,02/19/2019 11:07:17 AM,02/13/2020 10:15:53 PM,03/01/2019 08:58:56 AM,339 W GARFIELD BLVD,,,60621,339,W,GARFIELD,BLVD,false,false,,,68,3,12,P035,1,07,0711,36,Monday,11,3,2,1174803.141932,1868262.539674,41.793908904,-87.634545748,"(41.79390890384922, -87.63454574774435)"
SR19-01036995,Sanitation Code Violation,SCB,Streets and Sanitation,Completed,02/19/2019 02:05:52 PM,02/13/2020 10:16:29 PM,03/12/2019 09:01:08 AM,6943 S PARNELL AVE,,,60621,6943,S,PARNELL,AVE,false,false,,,68,6,11,O038,3,07,0732,12,Monday,14,3,2,1173909.290645,1858673.057373,41.767614187,-87.638107734,"(41.76761418723336, -87.63810773374914)"
SR19-01038652,Sanitation Code Violation,SCB,Streets and Sanitation,Completed,02/19/2019 05:34:53 PM,02/13/2020 10:17:02 PM,03/10/2019 02:27:51 PM,902 N TRUMBULL AVE,,,60651,902,N,TRUMBULL,AVE,false,false,,,23,27,5,H020,2,11,1121,5,Thursday,17,3,2,1153135.391573,1905851.537162,41.897513529,-87.713004993,"(41.8975135285138, -87.71300499306236)"
SR19-01038802,Sanitation Code Violation,SCB,Streets and Sanitation,Completed,02/19/2019 06:02:33 PM,02/13/2020 10:17:06 PM,03/28/2019 01:53:37 PM,334 W 24TH ST,,,60616,334,W,24TH,ST,false,false,,,34,25,9,P027,1,09,0914,18,Tuesday,18,3,2,1174224.892684,1888456.036751,41.849334574,-87.636065224,"(41.849334573786216, -87.63606522363911)"
SR19-01042582,Sanitation Code Violation,SCB,Streets and Sanitation,Completed,02/20/2019 11:30:06 AM,02/13/2020 10:18:21 PM,03/06/2019 06:33:47 AM,13000 S INDIANA AVE,,,60827,13000,S,INDIANA,AVE,false,false,,,54,9,14,P054,3,05,0533,26,Wednesday,11,4,2,1179902.909543,1819149.457212,41.6590212,-87.617343312,"(41.659021200142156, -87.61734331203716)"
SR19-01042617,Sanitation Code Violation,SCB,Streets and Sanitation,Completed,02/20/2019 11:34:59 AM,02/13/2020 10:18:21 PM,03/01/2019 09:26:39 AM,4322 S MICHIGAN AVE,,,60653,4322,S,MICHIGAN,AVE,false,false,,,38,3,9,Q032,1,02,0215,15,Tuesday,11,4,2,1177847.826191,1876371.622471,41.81609251,-87.623135444,"(41.816092510227584, -87.62313544372047)"
SR19-01043020,Sanitation Code Violation,SCB,Streets and Sanitation,Completed,02/20/2019 12:16:32 PM,02/13/2020 10:18:29 PM,06/14/2019 09:01:04 AM,11616 S HARVARD AVE,,,60628,11616,S,HARVARD,AVE,false,false,,,53,34,14,P050,2,05,0522,11,Tuesday,12,4,2,1175974.019611,1827806.105226,41.68286509,-87.631462117,"(41.6828650896707, -87.63146211651376)"
SR19-01043197,Sanitation Code Violation,SCB,Streets and Sanitation,Completed,02/20/2019 12:38:03 PM,02/13/2020 10:18:33 PM,03/01/2019 08:52:20 AM,1323 S Michigan AVE,,,,1323,S,Michigan,AVE,false,false,,,33,3,7,Q025,3,01,0132,39,Tuesday,12,4,2,1177544.542512,1894225.657494,41.865092185,-87.623706838,"(41.86509218535136, -87.62370683784457)"
SR19-01044250,Sanitation Code Violation,SCB,Streets and Sanitation,Completed,02/20/2019 03:01:50 PM,02/13/2020 10:18:54 PM,04/23/2019 10:29:32 AM,7900 S KINGSTON AVE,,,60617,7900,S,KINGSTON,AVE,false,false,,,46,7,12,W040,2,04,0422,16,Friday,15,4,2,1194549.762299,1853048.163507,41.75169633,-87.562637218,"(41.75169632987425, -87.56263721798317)"
SR19-01044579,Sanitation Code Violation,SCB,Streets and Sanitation,Completed,02/20/2019 03:39:45 PM,02/13/2020 10:19:02 PM,03/06/2019 07:18:06 AM,6817 S WOLCOTT AVE,,,60636,6817,S,WOLCOTT,AVE,false,false,,,67,17,11,L038,2,07,0726,19,Thursday,15,4,2,1164938.367828,1859380.433598,41.769749599,-87.670970188,"(41.76974959922703, -87.6709701883476)"
SR19-01045640,Sanitation Code Violation,SCB,Streets and Sanitation,Completed,02/20/2019 06:48:57 PM,02/13/2020 10:19:23 PM,04/23/2019 10:36:41 AM,8022 S BURNHAM AVE,,,60617,8022,S,BURNHAM,AVE,false,false,,,46,7,12,W041,2,04,0422,20,Friday,18,4,2,1196158.239741,1852195.17074,41.749315964,-87.556771236,"(41.749315964325596, -87.55677123626411)"
SR19-01047717,Sanitation Code Violation,SCB,Streets and Sanitation,Completed,02/21/2019 09:47:30 AM,02/13/2020 10:20:02 PM,03/28/2019 02:12:54 PM,211 W 22ND PL,,,60616,211,W,22ND,PL,false,false,,,34,25,9,P027,1,09,0914,6,Tuesday,9,5,2,1175176.842335,1889428.83587,41.851982744,-87.632542352,"(41.85198274380191, -87.63254235172191)"
SR19-01047987,Sanitation Code Violation,SCB,Streets and Sanitation,Completed,02/21/2019 10:18:38 AM,02/13/2020 10:20:08 PM,03/11/2019 12:59:36 PM,7919 S GREENWOOD AVE,,,60619,7919,S,GREENWOOD,AVE,false,false,,,44,8,12,S041,2,06,0624,54,Friday,10,5,2,1184988.014582,1852633.288361,41.750787563,-87.597689055,"(41.75078756307491, -87.59768905518493)"
SR19-01048229,Sanitation Code Violation,SCB,Streets and Sanitation,Completed,02/21/2019 10:43:39 AM,02/13/2020 10:20:11 PM,04/21/2019 11:12:28 AM,2130 N PULASKI RD,,,60639,2130,N,PULASKI,RD,false,false,,,20,26,3,F017,2,25,2525,49,Monday,10,5,2,1149293.143852,1914011.037746,41.919979369,-87.726905334,"(41.91997936910012, -87.72690533350325)"
SR19-01048871,Sanitation Code Violation,SCB,Streets and Sanitation,Completed,02/21/2019 11:46:11 AM,02/13/2020 10:20:19 PM,02/28/2019 01:10:24 PM,9917 S EWING AVE,,,60617,9917,S,EWING,AVE,false,false,,,52,10,15,Y046,3,04,0432,22,Thursday,11,5,2,1202207.471548,1839852.546697,41.715294981,-87.535024497,"(41.715294981298356, -87.53502449653375)"
SR19-01049171,Sanitation Code Violation,SCB,Streets and Sanitation,Completed,02/21/2019 12:29:59 PM,02/13/2020 10:20:24 PM,02/28/2019 06:22:05 AM,3000 W DIVERSEY AVE,,,60647,3000,W,DIVERSEY,AVE,false,false,,,22,33,4,I015,1,14,1411,17,Tuesday,12,5,2,1155895.290336,1918463.661225,41.932067039,-87.702527469,"(41.9320670389422, -87.70252746917012)"
SR19-01049212,Sanitation Code Violation,SCB,Streets and Sanitation,Completed,02/21/2019 12:36:03 PM,02/13/2020 10:20:24 PM,03/05/2019 03:37:44 PM,5056 W OHIO ST,,,60644,5056,W,OHIO,ST,false,false,,,25,37,6,D021,3,15,1532,39,Tuesday,12,5,2,1142254.471579,1903520.883646,41.891326873,-87.753027639,"(41.8913268732112, -87.753027638642)"
SR19-01049415,Sanitation Code Violation,SCB,Streets and Sanitation,Completed,02/21/2019 12:57:55 PM,02/13/2020 10:20:27 PM,03/05/2019 07:27:12 AM,8000 S INDIANA AVE,,,60619,8000,S,INDIANA,AVE,false,false,,,44,6,12,Q041,2,06,0623,2,Tuesday,12,5,2,1178971.173032,1851976.566611,41.749124497,-87.619757428,"(41.74912449722072, -87.61975742790732)"
SR19-01049730,Sanitation Code Violation,SCB,Streets and Sanitation,Completed,02/21/2019 01:40:00 PM,02/13/2020 10:20:30 PM,03/11/2019 01:05:59 PM,8743 S PAXTON AVE,,,60617,8743,S,PAXTON,AVE,false,false,,,48,8,15,V043,1,04,0412,17,Thursday,13,5,2,1192436.432292,1847258.183072,41.735859801,-87.570569512,"(41.735859800833865, -87.57056951195915)"
SR19-01050197,Sanitation Code Violation,SCB,Streets and Sanitation,Completed,02/21/2019 02:46:58 PM,02/13/2020 10:20:38 PM,03/11/2019 06:42:36 AM,4715 S JUSTINE ST,,,60609,4715,S,JUSTINE,ST,false,false,,,61,20,9,M033,3,09,0933,15,Wednesday,14,5,2,1166870.392229,1873381.788113,41.808129979,-87.663488358,"(41.80812997918617, -87.66348835754347)"
SR19-01051783,Sanitation Code Violation,SCB,Streets and Sanitation,Completed,02/21/2019 08:25:29 PM,02/13/2020 10:21:01 PM,03/12/2019 10:04:14 AM,5743 S KENTON AVE,,,60629,5743,S,KENTON,AVE,false,false,,,62,13,10,E035,1,08,0813,12,Tuesday,20,5,2,1146782.393534,1865967.289509,41.788189443,-87.737355526,"(41.78818944267113, -87.7373555263127)"
SR19-01052887,Sanitation Code Violation,SCB,Streets and Sanitation,Completed,02/22/2019 08:17:25 AM,02/13/2020 10:21:15 PM,03/06/2019 03:47:07 PM,4447 W VAN BUREN ST,,,60624,4447,W,VAN BUREN,ST,false,false,,,26,28,6,E023,3,11,1131,16,Wednesday,8,6,2,1146629.440068,1897575.285747,41.874929146,-87.737111983,"(41.87492914581298, -87.73711198297485)"
SR19-01052932,Sanitation Code Violation,SCB,Streets and Sanitation,Completed,02/22/2019 08:29:26 AM,02/13/2020 10:21:15 PM,03/06/2019 03:48:54 PM,3421 W ADAMS ST,,,60624,3421,W,ADAMS,ST,false,false,,,27,28,7,H023,2,11,1123,25,Thursday,8,6,2,1153502.552855,1898769.468506,41.878072326,-87.711844838,"(41.87807232553233, -87.71184483774584)"
SR19-01053496,Sanitation Code Violation,SCB,Streets and Sanitation,Completed,02/22/2019 09:49:00 AM,02/13/2020 10:21:23 PM,03/06/2019 06:33:37 AM,714 W OAKDALE AVE,,,60657,714,W,OAKDALE,AVE,false,false,,,6,44,4,O015,3,19,1934,6,Wednesday,9,6,2,1170727.815872,1919915.039132,41.935737286,-87.647977588,"(41.93573728646266, -87.64797758778191)"
SR19-01054998,Sanitation Code Violation,SCB,Streets and Sanitation,Completed,02/22/2019 12:47:20 PM,02/13/2020 10:21:45 PM,03/07/2019 12:27:24 PM,3812 N Pine Grove AVE,,,60613,3812,N,Pine Grove,AVE,false,false,,,6,46,4,O013,2,19,1925,24,Friday,12,6,2,1170587.167997,1925868.037459,41.952075632,-87.648319638,"(41.952075631579795, -87.64831963795115)"
SR19-01055306,Sanitation Code Violation,SCB,Streets and Sanitation,Completed,02/22/2019 01:30:33 PM,02/13/2020 10:21:47 PM,03/29/2019 11:08:12 AM,1813 S LAFLIN ST,,,60608,1813,S,LAFLIN,ST,false,false,,,31,25,7,M026,3,12,1233,7,Friday,13,6,2,1166666.956736,1891350.712774,41.857442878,-87.663720771,"(41.85744287798373, -87.66372077084529)"
SR19-01055484,Sanitation Code Violation,SCB,Streets and Sanitation,Completed,02/22/2019 02:01:27 PM,02/13/2020 10:21:50 PM,05/23/2019 06:24:16 AM,1212 N WOOD ST,,,60622,1212,N,WOOD,ST,false,false,,,24,1,5,L019,2,14,1424,21,Friday,14,6,2,1164164.919676,1908191.651364,41.903708994,-87.672428652,"(41.90370899355786, -87.67242865193235)"
SR19-01055851,Sanitation Code Violation,SCB,Streets and Sanitation,Completed,02/22/2019 03:02:32 PM,02/13/2020 10:21:55 PM,03/05/2019 06:56:33 AM,7907 S STATE ST,,,60619,7907,S,STATE,ST,false,false,,,44,6,12,P041,2,06,0623,41,Tuesday,15,6,2,1177669.875907,1852552.43411,41.750734262,-87.624508469,"(41.75073426157025, -87.62450846863027)"
SR19-01056068,Sanitation Code Violation,SCB,Streets and Sanitation,Completed,02/22/2019 03:34:16 PM,02/13/2020 10:21:58 PM,03/06/2019 06:53:36 AM,6618 S PAULINA ST,,,60636,6618,S,PAULINA,ST,false,false,,,67,15,11,L037,2,07,0725,22,Friday,15,6,2,1166061.091768,1860704.806801,41.773360054,-87.666817142,"(41.773360054190675, -87.66681714234656)"
SR19-01056138,Sanitation Code Violation,SCB,Streets and Sanitation,Completed,02/22/2019 03:45:52 PM,02/13/2020 10:21:58 PM,03/01/2019 09:04:26 AM,5146 S TROY ST,,,60632,5146,S,TROY,ST,false,false,,,63,14,11,I034,2,09,0923,30,Wednesday,15,6,2,1156245.141442,1870138.496114,41.799450584,-87.702546691,"(41.79945058375535, -87.70254669131388)"
SR19-01056491,Sanitation Code Violation,SCB,Streets and Sanitation,Completed,02/22/2019 05:00:25 PM,06/30/2020 09:59:29 PM,03/11/2019 07:49:00 AM,3616 W 55TH ST,,,60632,3616,W,55TH,ST,false,false,,,62,23,10,G034,2,08,0822,9,Thursday,17,6,2,1153084.892356,1867975.539404,41.793578169,-87.714193384,"(41.79357816928078, -87.71419338427367)"
SR19-01056694,Sanitation Code Violation,SCB,Streets and Sanitation,Completed,02/22/2019 05:53:49 PM,02/13/2020 10:22:07 PM,03/01/2019 10:08:28 AM,5300 S MICHIGAN AVE,,,60615,5300,S,MICHIGAN,AVE,false,false,,,40,3,12,Q034,2,02,0225,16,Tuesday,17,6,2,1177974.467303,1869797.138713,41.798048663,-87.62287026,"(41.798048662965186, -87.62287025982118)"
SR19-01058567,Sanitation Code Violation,SCB,Streets and Sanitation,Completed,02/23/2019 09:17:32 AM,02/13/2020 10:22:31 PM,03/19/2019 12:19:01 PM,1305 S FAIRFIELD AVE,,,60608,1305,S,FAIRFIELD,AVE,false,false,,,29,28,7,J025,2,10,1023,34,Friday,9,7,2,1158249.426857,1893837.968823,41.864444154,-87.694550123,"(41.86444415351731, -87.69455012339338)"
SR19-01058983,Sanitation Code Violation,SCB,Streets and Sanitation,Completed,02/23/2019 11:32:14 AM,02/13/2020 10:22:36 PM,06/14/2019 08:43:56 AM,11618 S HARVARD AVE,,,60628,11618,S,HARVARD,AVE,false,false,,,53,34,14,P050,2,05,0522,11,Tuesday,11,7,2,1176030.923615,1827784.622522,41.682804865,-87.631254454,"(41.68280486548997, -87.6312544541239)"
SR19-01059285,Sanitation Code Violation,SCB,Streets and Sanitation,Completed,02/23/2019 01:01:22 PM,02/13/2020 10:22:41 PM,03/05/2019 07:20:00 AM,7501 S PARNELL AVE,,,60620,7501,S,PARNELL,AVE,false,false,,,69,6,11,O039,3,07,0732,17,Tuesday,13,7,2,1173933.495715,1855105.168771,41.757822935,-87.638124707,"(41.75782293541884, -87.63812470682373)"
SR19-01059533,Sanitation Code Violation,SCB,Streets and Sanitation,Completed,02/23/2019 02:14:39 PM,02/13/2020 10:22:44 PM,02/28/2019 06:55:26 AM,4844 N LAMON AVE,,,60630,4844,N,LAMON,AVE,false,false,,,12,45,1,D010,2,16,1623,30,Wednesday,14,7,2,1142733.643835,1931938.872455,41.969299774,-87.750558463,"(41.96929977446098, -87.75055846283335)"
SR19-01060098,Sanitation Code Violation,SCB,Streets and Sanitation,Completed,02/23/2019 04:34:42 PM,02/13/2020 10:22:52 PM,03/05/2019 03:41:16 PM,5109 W CONCORD PL,,,60639,5109,W,CONCORD,PL,false,false,,,25,37,6,D018,3,25,2533,41,Monday,16,7,2,1142187.077135,1910482.821609,41.910432485,-87.75310222,"(41.9104324847104, -87.75310222042897)"
SR19-01060153,Sanitation Code Violation,SCB,Streets and Sanitation,Completed,02/23/2019 04:56:21 PM,02/13/2020 10:22:52 PM,02/28/2019 06:52:59 AM,5500 N NAGLE AVE,,,60630,5500,N,NAGLE,AVE,false,false,,,10,45,1,Z109,1,16,1613,45,Tuesday,16,7,2,1132508.827486,1936212.16178,41.981210788,-87.788055747,"(41.981210787645196, -87.7880557471929)"
SR19-01062036,Sanitation Code Violation,SCB,Streets and Sanitation,Completed,02/24/2019 08:52:12 AM,02/13/2020 10:23:19 PM,03/01/2019 08:56:53 AM,5404 S KEDZIE AVE,,,60632,5404,S,KEDZIE,AVE,false,false,,,63,14,11,I034,2,09,0923,15,Wednesday,8,1,2,1155955.929264,1868570.177919,41.795152718,-87.703649446,"(41.79515271822001, -87.70364944617177)"
SR19-01062112,Sanitation Code Violation,SCB,Streets and Sanitation,Completed,02/24/2019 09:07:07 AM,02/13/2020 10:23:19 PM,03/11/2019 01:13:41 PM,1117 E 82ND ST,,,60619,1117,E,82ND,ST,false,false,,,45,8,12,S041,1,04,0411,48,Friday,9,1,2,1185172.391963,1850768.539461,41.745666173,-87.597071887,"(41.74566617309918, -87.5970718872514)"
SR19-01062495,Sanitation Code Violation,SCB,Streets and Sanitation,Completed,02/24/2019 10:25:30 AM,02/13/2020 10:23:25 PM,03/10/2019 02:48:38 PM,2942 W WARREN BLVD,,,60612,2942,W,WARREN,BLVD,false,false,,,27,27,7,I022,2,12,1222,49,Friday,10,1,2,1156588.764691,1900278.761149,41.88215209,-87.700472081,"(41.88215208953926, -87.70047208079575)"
SR19-01062737,Sanitation Code Violation,SCB,Streets and Sanitation,Completed,02/24/2019 11:24:35 AM,02/13/2020 10:23:28 PM,02/28/2019 06:38:23 AM,4266 N MILWAUKEE AVE,,,60641,4266,N,MILWAUKEE,AVE,false,false,,,15,45,3,D012,2,16,1624,14,Thursday,11,1,2,1142115.889568,1928122.663217,41.958839281,-87.752925027,"(41.95883928053238, -87.75292502746113)"
SR19-01063085,Sanitation Code Violation,SCB,Streets and Sanitation,Completed,02/24/2019 12:53:20 PM,02/13/2020 10:23:33 PM,03/07/2019 03:46:31 PM,161 N LONG AVE,,,60644,161,N,LONG,AVE,false,false,,,25,28,6,C022,2,15,1523,41,Tuesday,12,1,2,1140331.094773,1900871.352914,41.884091708,-87.760156382,"(41.884091707613585, -87.76015638193647)"
SR19-01063331,Sanitation Code Violation,SCB,Streets and Sanitation,Completed,02/24/2019 02:00:53 PM,02/13/2020 10:23:36 PM,04/23/2019 10:44:21 AM,8031 S PHILLIPS AVE,,,60617,8031,S,PHILLIPS,AVE,false,false,,,46,7,12,W041,2,04,0422,19,Friday,14,1,2,1193998.134263,1852047.939004,41.748965174,-87.564691381,"(41.748965174405775, -87.56469138126218)"
SR19-01063610,Sanitation Code Violation,SCB,Streets and Sanitation,Completed,02/24/2019 03:13:43 PM,02/13/2020 10:23:39 PM,02/28/2019 06:38:23 AM,4266 N MILWAUKEE AVE,,,60641,4266,N,MILWAUKEE,AVE,true,false,,SR19-01062737,15,45,3,D012,2,16,1624,14,Thursday,15,1,2,1142115.889568,1928122.663217,41.958839281,-87.752925027,"(41.95883928053238, -87.75292502746113)"
SR19-01064047,Sanitation Code Violation,SCB,Streets and Sanitation,Completed,02/24/2019 04:49:49 PM,02/13/2020 10:23:47 PM,03/06/2019 06:37:43 AM,3015 S KENNETH AVE,,,60623,3015,S,KENNETH,AVE,false,false,,,30,22,8,E028,3,10,1031,5,Friday,16,1,2,1147281.768946,1884153.266318,41.838084952,-87.735060252,"(41.83808495214179, -87.73506025203837)"
SR19-01064289,Sanitation Code Violation,SCB,Streets and Sanitation,Completed,02/24/2019 06:09:49 PM,02/13/2020 10:23:49 PM,02/28/2019 06:46:05 AM,4960 W CULLOM AVE,,,60641,4960,W,CULLOM,AVE,false,false,,,15,45,3,D012,2,16,1624,14,Thursday,18,1,2,1142283.015845,1928201.362513,41.95905213,-87.752308635,"(41.95905213039344, -87.75230863490827)"
SR19-01065535,Sanitation Code Violation,SCB,Streets and Sanitation,Completed,02/25/2019 01:42:42 AM,02/13/2020 10:24:03 PM,03/29/2019 11:17:43 AM,2002 S WENTWORTH AVE,,,60616,2002,S,WENTWORTH,AVE,false,false,,,34,25,7,P026,1,09,0914,14,Friday,1,2,2,1175280.680124,1890560.545939,41.855085913,-87.632127323,"(41.855085912935145, -87.63212732327428)"
SR19-01065785,Sanitation Code Violation,SCB,Streets and Sanitation,Completed,02/25/2019 06:45:11 AM,02/13/2020 10:24:09 PM,03/20/2019 09:16:13 AM,1018 N MONTICELLO AVE,,,60651,1018,N,MONTICELLO,AVE,false,false,,,23,27,6,G020,1,11,1112,29,Thursday,6,2,2,1151846.865342,1906640.762729,41.899704709,-87.717716824,"(41.89970470938671, -87.71771682411317)"
SR19-01065866,Sanitation Code Violation,SCB,Streets and Sanitation,Completed,02/25/2019 07:16:55 AM,02/13/2020 10:24:09 PM,03/11/2019 07:43:56 AM,6433 S DREXEL AVE,,,60637,6433,S,DREXEL,AVE,false,false,,,42,20,12,S037,1,03,0314,5,Monday,7,2,2,1183582.914217,1862399.686563,41.777620371,-87.602533901,"(41.777620371140344, -87.60253390131507)"
SR19-01066106,Sanitation Code Violation,SCB,Streets and Sanitation,Completed,02/25/2019 08:16:33 AM,02/13/2020 10:24:11 PM,03/11/2019 08:24:37 AM,6300 S ELLIS AVE,,,60637,6300,S,ELLIS,AVE,false,false,,,42,20,12,S036,1,03,0314,24,Monday,8,2,2,1184129.42186,1863414.572732,41.780392548,-87.600498715,"(41.78039254793976, -87.60049871542154)"
SR19-01066241,Sanitation Code Violation,SCB,Streets and Sanitation,Completed,02/25/2019 08:39:52 AM,02/13/2020 10:24:14 PM,03/07/2019 12:31:03 PM,3600 N LAKE SHORE DR,,,60613,3600,N,LAKE SHORE,DR,false,false,,,6,46,4,O013,2,19,1925,19,Friday,8,2,2,1171694.070708,1924744.802435,41.948969087,-87.64428388,"(41.948969087294124, -87.64428388029951)"
SR19-01067297,Sanitation Code Violation,SCB,Streets and Sanitation,Completed,02/25/2019 10:35:39 AM,02/13/2020 10:24:32 PM,03/06/2019 06:53:36 AM,6618 S PAULINA ST,,,60636,6618,S,PAULINA,ST,true,false,,SR19-01056068,67,15,11,L037,2,07,0725,22,Friday,10,2,2,1166061.091768,1860704.806801,41.773360054,-87.666817142,"(41.773360054190675, -87.66681714234656)"
SR19-01067565,Sanitation Code Violation,SCB,Streets and Sanitation,Completed,02/25/2019 11:01:24 AM,02/13/2020 10:24:35 PM,03/01/2019 02:17:14 PM,2028 W Iowa ST,,,60622,2028,W,Iowa,ST,false,false,,,24,2,5,K020,1,12,1212,21,Friday,11,2,2,1162584.028024,1906007.006893,41.897747437,-87.678296902,"(41.897747436733404, -87.67829690176323)"
SR19-01067653,Sanitation Code Violation,SCB,Streets and Sanitation,Completed,02/25/2019 11:10:04 AM,02/13/2020 10:24:38 PM,03/01/2019 09:35:54 AM,4546 S INDIANA AVE,,,60653,4546,S,INDIANA,AVE,false,false,,,38,3,9,Q032,1,02,0215,15,Tuesday,11,2,2,1178268.054877,1874789.63835,41.811741869,-87.62164203,"(41.81174186899922, -87.62164203047654)"
SR19-01068141,Sanitation Code Violation,SCB,Streets and Sanitation,Completed,02/25/2019 12:00:01 PM,02/13/2020 10:24:43 PM,03/05/2019 06:52:21 AM,7618 S SAINT LAWRENCE AVE,,,60619,7618,S,SAINT LAWRENCE,AVE,false,false,,,69,6,12,R040,2,06,0624,14,Tuesday,12,2,2,1181481.832905,1854523.195665,41.756055218,-87.610479076,"(41.756055218398416, -87.61047907618543)"
SR19-01068380,Sanitation Code Violation,SCB,Streets and Sanitation,Completed,02/25/2019 12:25:47 PM,06/30/2020 11:28:00 PM,05/28/2019 03:30:15 PM,8017 S COLFAX AVE,,,60617,8017,S,COLFAX,AVE,false,false,,,46,7,12,W041,2,04,0422,20,Friday,12,2,2,1194980.829825,1852229.258486,41.749438583,-87.561084523,"(41.74943858331289, -87.56108452340443)"
SR19-01068806,Sanitation Code Violation,SCB,Streets and Sanitation,Completed,02/25/2019 01:11:54 PM,02/13/2020 10:24:51 PM,03/01/2019 08:06:57 AM,9701 S HALSTED ST,,,60628,9701,S,HALSTED,ST,false,false,,,73,21,14,N045,2,22,2223,41,Monday,13,2,2,1172698.531271,1840490.490085,41.717745584,-87.643080278,"(41.71774558365839, -87.6430802775374)"
SR19-01069084,Sanitation Code Violation,SCB,Streets and Sanitation,Completed,02/25/2019 01:42:47 PM,02/13/2020 10:24:57 PM,03/05/2019 03:44:33 PM,1835 N LUNA AVE,,,60639,1835,N,LUNA,AVE,false,false,,,25,37,6,C018,3,25,2532,26,Monday,13,2,2,1139190.824155,1911797.058521,41.914093994,-87.76407743,"(41.914093994314285, -87.76407742990497)"
SR19-01069499,Sanitation Code Violation,SCB,Streets and Sanitation,Completed,02/25/2019 02:23:58 PM,02/13/2020 10:25:03 PM,03/11/2019 01:16:17 PM,9040 S DOBSON AVE,,,60619,9040,S,DOBSON,AVE,false,false,,,47,8,14,S043,1,04,0413,38,Wednesday,14,2,2,1184725.222823,1845090.414778,41.730095271,-87.598887935,"(41.730095270632525, -87.59888793511739)"
SR19-01069509,Sanitation Code Violation,SCB,Streets and Sanitation,Completed,02/25/2019 02:25:26 PM,02/13/2020 10:25:03 PM,03/11/2019 06:30:25 AM,7553 S WOLCOTT AVE,,,60620,7553,S,WOLCOTT,AVE,false,false,,,71,17,11,L040,1,06,0611,40,Thursday,14,2,2,1165086.103764,1854354.685976,41.755955128,-87.670570591,"(41.75595512828522, -87.67057059096979)"
SR19-01069626,Sanitation Code Violation,SCB,Streets and Sanitation,Completed,02/25/2019 02:42:54 PM,02/13/2020 10:25:03 PM,03/06/2019 06:40:30 AM,4825 S LECLAIRE AVE,,,60638,4825,S,LECLAIRE,AVE,false,false,,,56,22,8,D033,1,08,0814,8,Thursday,14,2,2,1143248.501475,1872040.260044,41.80492116,-87.750162103,"(41.80492116003478, -87.75016210272872)"
SR19-01069636,Sanitation Code Violation,SCB,Streets and Sanitation,Completed,02/25/2019 02:44:52 PM,02/13/2020 10:25:03 PM,03/07/2019 07:50:42 AM,1317 N LARRABEE ST,,,60610,1317,N,LARRABEE,ST,false,false,,,8,27,5,O019,2,18,1822,6,Friday,14,2,2,1172103.894831,1908940.617143,41.905592655,-87.643244995,"(41.90559265512581, -87.64324499468148)"
SR19-01069666,Sanitation Code Violation,SCB,Streets and Sanitation,Completed,02/25/2019 02:50:25 PM,02/13/2020 10:25:06 PM,02/28/2019 07:48:21 AM,6228 S WESTERN AVE,,,60636,6228,S,WESTERN,AVE,false,false,,,66,16,11,J036,2,08,0825,19,Friday,14,2,2,1161345.1952,1863159.339613,41.780194627,-87.684036668,"(41.780194626828305, -87.68403666837762)"
SR19-01070086,Sanitation Code Violation,SCB,Streets and Sanitation,Completed,02/25/2019 03:49:58 PM,02/13/2020 10:25:11 PM,06/14/2019 06:40:29 AM,226 W 106TH ST,,,60628,226,W,106TH,ST,false,false,,,49,34,14,P047,1,05,0512,4,Tuesday,15,2,2,1176507.94739,1834717.807426,41.701819876,-87.629300824,"(41.701819875720496, -87.62930082361986)"
SR19-01070166,Sanitation Code Violation,SCB,Streets and Sanitation,Completed,02/25/2019 03:58:40 PM,02/13/2020 10:25:11 PM,06/12/2019 12:59:29 PM,12337 S WALLACE ST,,,60628,12337,S,WALLACE,ST,false,false,,,53,34,14,O052,2,05,0523,3,Wednesday,15,2,2,1174619.945035,1822915.139198,41.669473658,-87.636563635,"(41.66947365768872, -87.63656363529586)"
SR19-01070324,Sanitation Code Violation,SCB,Streets and Sanitation,Completed,02/25/2019 04:17:11 PM,02/13/2020 10:25:14 PM,03/15/2019 07:31:55 AM,3743 N JANSSEN AVE,,,60613,3743,N,JANSSEN,AVE,false,false,,,6,44,4,M013,2,19,1922,16,Friday,16,2,2,1166043.888719,1925136.081025,41.950165542,-87.665041681,"(41.950165542256116, -87.66504168058982)"
SR19-01070425,Sanitation Code Violation,SCB,Streets and Sanitation,Completed,02/25/2019 04:28:18 PM,02/13/2020 10:25:14 PM,03/07/2019 07:53:20 AM,728 N RIDGEWAY AVE,,,60624,728,N,RIDGEWAY,AVE,false,false,,,23,27,6,G021,1,11,1112,15,Thursday,16,2,2,1151175.968257,1904751.939337,41.894534772,-87.720230627,"(41.894534772030006, -87.7202306271208)"
SR19-01070821,Sanitation Code Violation,SCB,Streets and Sanitation,Completed,02/25/2019 05:50:08 PM,02/13/2020 10:25:20 PM,03/05/2019 07:04:40 AM,7128 S CHAMPLAIN AVE,,,60619,7128,S,CHAMPLAIN,AVE,false,false,,,69,6,12,R039,2,03,0323,30,Tuesday,17,2,2,1181727.550676,1857764.661705,41.76494447,-87.609478624,"(41.76494447002316, -87.60947862358238)"
SR19-01071260,Sanitation Code Violation,SCB,Streets and Sanitation,Completed,02/25/2019 07:50:35 PM,02/13/2020 10:25:26 PM,02/28/2019 07:08:17 AM,6638 S KNOX AVE,,,60629,6638,S,KNOX,AVE,false,false,,,64,13,10,E037,3,08,0833,37,Tuesday,19,2,2,1146457.770951,1860014.002084,41.771858802,-87.738696758,"(41.771858801606875, -87.73869675757784)"
SR19-01071361,Sanitation Code Violation,SCB,Streets and Sanitation,Completed,02/25/2019 08:18:48 PM,02/13/2020 10:25:29 PM,02/28/2019 10:57:59 AM,5345 N SHERIDAN RD,,,60640,5345,N,SHERIDAN,RD,false,false,,,77,48,2,N009,2,20,2023,29,Thursday,20,2,2,1168857.59304,1935905.098456,41.979655408,-87.654385159,"(41.97965540833925, -87.65438515937953)"
SR19-01072312,Sanitation Code Violation,SCB,Streets and Sanitation,Completed,02/26/2019 07:26:45 AM,02/13/2020 10:25:40 PM,02/28/2019 05:09:14 AM,6344 N FAIRFIELD AVE,,,60659,6344,N,FAIRFIELD,AVE,false,false,,,2,50,2,J007,1,24,2413,29,Tuesday,7,3,2,1156830.471135,1942173.281527,41.99710866,-87.698445187,"(41.99710865962711, -87.6984451874383)"
SR19-01072835,Sanitation Code Violation,SCB,Streets and Sanitation,Completed,02/26/2019 08:55:13 AM,02/13/2020 10:25:48 PM,03/06/2019 03:32:00 PM,347 S KEELER AVE,,,60624,347,S,KEELER,AVE,false,false,,,26,28,6,F023,3,11,1132,9,Wednesday,8,3,2,1148511.787805,1897842.037115,41.875625054,-87.730193835,"(41.87562505411789, -87.73019383498065)"
SR19-01073189,Sanitation Code Violation,SCB,Streets and Sanitation,Completed,02/26/2019 09:36:55 AM,02/13/2020 10:25:54 PM,03/07/2019 07:56:31 AM,400 N OAKLEY BLVD,,,60612,400,N,OAKLEY,BLVD,false,false,,,28,27,7,K021,2,12,1221,43,Friday,9,3,2,1160974.042388,1902694.024166,41.888689914,-87.68430225,"(41.88868991401848, -87.68430224990188)"
SR19-01073594,Sanitation Code Violation,SCB,Streets and Sanitation,Completed,02/26/2019 10:18:00 AM,02/13/2020 10:25:59 PM,06/14/2019 08:13:05 AM,11838 S PERRY AVE,,,60628,11838,S,PERRY,AVE,false,false,,,53,34,14,P050,2,05,0522,9,Tuesday,10,3,2,1177639.99474,1826283.875449,41.678650454,-87.625409426,"(41.67865045380557, -87.62540942602816)"
SR19-01073626,Sanitation Code Violation,SCB,Streets and Sanitation,Completed,02/26/2019 10:21:14 AM,02/13/2020 10:25:59 PM,03/06/2019 12:15:35 PM,2522 E 97TH ST,,,60617,2522,E,97TH,ST,false,false,,,51,10,15,W045,3,04,0431,15,Thursday,10,3,2,1194670.350671,1841197.920801,41.719175271,-87.562584217,"(41.71917527126733, -87.56258421684777)"
SR19-01073701,Sanitation Code Violation,SCB,Streets and Sanitation,Completed,02/26/2019 10:26:52 AM,02/13/2020 10:25:59 PM,03/15/2019 11:17:06 AM,5443 S UNION AVE,,,60609,5443,S,UNION,AVE,false,false,,,61,20,11,O034,3,09,0935,6,Tuesday,10,3,2,1172573.353686,1868604.176168,41.794895837,-87.642712152,"(41.79489583696823, -87.64271215240518)"
SR19-01073835,Sanitation Code Violation,SCB,Streets and Sanitation,Completed,02/26/2019 10:39:31 AM,02/13/2020 10:26:02 PM,03/01/2019 09:07:37 AM,4015 S CALUMET AVE,,,60653,4015,S,CALUMET,AVE,false,false,,,38,3,9,Q031,1,02,0213,20,Tuesday,10,3,2,1179179.577276,1878358.039757,41.821513094,-87.618189703,"(41.8215130938341, -87.61818970306783)"
SR19-01073863,Sanitation Code Violation,SCB,Streets and Sanitation,Completed,02/26/2019 10:41:57 AM,02/13/2020 10:26:02 PM,03/05/2019 06:52:31 AM,13334 S HOUSTON AVE,,,60633,13334,S,HOUSTON,AVE,false,false,,,55,10,15,X054,3,04,0433,17,Wednesday,10,3,2,1198700.727163,1817000.415375,41.652674905,-87.548629827,"(41.65267490486536, -87.54862982703776)"
SR19-01073931,Sanitation Code Violation,SCB,Streets and Sanitation,Completed,02/26/2019 10:46:52 AM,02/13/2020 10:26:02 PM,03/29/2019 12:27:34 PM,2324 S LEAVITT ST,,,60608,2324,S,LEAVITT,ST,false,false,,,31,25,8,K027,3,10,1034,26,Friday,10,3,2,1161976.542106,1888422.019559,41.849505336,-87.681018979,"(41.84950533609687, -87.68101897938536)"
SR19-01073978,Sanitation Code Violation,SCB,Streets and Sanitation,Completed,02/26/2019 10:51:15 AM,02/13/2020 10:26:05 PM,03/29/2019 12:29:11 PM,2315 W 24TH PL,,,60608,2315,W,24TH,PL,false,false,,,31,25,8,K027,3,10,1034,5,Friday,10,3,2,1161246.110319,1887598.191925,41.847259861,-87.683722632,"(41.84725986104749, -87.68372263173625)"
SR19-01074351,Sanitation Code Violation,SCB,Streets and Sanitation,Completed,02/26/2019 11:27:19 AM,02/13/2020 10:26:11 PM,03/01/2019 02:29:38 PM,7101 S KEDZIE AVE,,,60629,7101,S,KEDZIE,AVE,false,false,,,66,18,11,I039,3,08,0831,39,Wednesday,11,3,2,1156386.927858,1857265.539255,41.764122447,-87.702373127,"(41.76412244650275, -87.70237312671611)"
SR19-01074484,Sanitation Code Violation,SCB,Streets and Sanitation,Completed,02/26/2019 11:42:38 AM,02/13/2020 10:26:11 PM,05/28/2019 03:41:56 PM,7915 S SAGINAW AVE,,,60649,7915,S,SAGINAW,AVE,false,false,,,46,7,12,W041,2,04,0422,20,Friday,11,3,2,1195313.720954,1852901.165146,41.751274142,-87.559842567,"(41.75127414224522, -87.55984256683094)"
SR19-01074510,Sanitation Code Violation,SCB,Streets and Sanitation,Completed,02/26/2019 11:45:32 AM,02/13/2020 10:26:11 PM,03/11/2019 06:39:22 AM,7800 S MARSHFIELD AVE,,,60620,7800,S,MARSHFIELD,AVE,false,false,,,71,17,11,L040,1,06,0611,38,Thursday,11,3,2,1166621.568376,1852935.259775,41.752027427,-87.664983854,"(41.75202742676074, -87.66498385386404)"
SR19-01074600,Sanitation Code Violation,SCB,Streets and Sanitation,Completed,02/26/2019 11:56:08 AM,10/07/2020 02:44:25 PM,02/28/2019 02:21:54 PM,2100 S CALIFORNIA AVE,,,60608,2100,S,CALIFORNIA,AVE,false,false,,,30,12,7,I026,2,10,1023,7,Friday,11,3,2,1157934.283344,1889895.785849,41.853632814,-87.695814469,"(41.85363281378949, -87.69581446933935)"
SR19-01075305,Sanitation Code Violation,SCB,Streets and Sanitation,Completed,02/26/2019 01:14:15 PM,02/13/2020 10:26:22 PM,02/28/2019 07:05:57 AM,3019 N LAMON AVE,,,60641,3019,N,LAMON,AVE,false,false,,,19,31,3,D015,2,25,2521,35,Thursday,13,3,2,1143229.329806,1919717.938,41.935755182,-87.749042165,"(41.93575518186414, -87.74904216539872)"
SR19-01075378,Sanitation Code Violation,SCB,Streets and Sanitation,Completed,02/26/2019 01:24:52 PM,02/13/2020 10:26:25 PM,03/10/2019 03:05:08 PM,228 S GREEN ST,,,60607,228,S,GREEN,ST,false,false,,,28,27,7,N023,3,12,1232,45,Friday,13,3,2,1170762.135755,1898988.806467,41.878313763,-87.648465484,"(41.87831376311974, -87.64846548438146)"
SR19-01075731,Sanitation Code Violation,SCB,Streets and Sanitation,Completed,02/26/2019 02:03:34 PM,02/13/2020 10:26:28 PM,03/01/2019 08:04:56 AM,6826 S CLYDE AVE,,,60649,6826,S,CLYDE,AVE,false,false,,,43,5,12,V038,3,03,0331,31,Monday,14,3,2,1191308.394456,1859976.438279,41.770787145,-87.574291076,"(41.770787145440785, -87.57429107577735)"
SR19-01075844,Sanitation Code Violation,SCB,Streets and Sanitation,Completed,02/26/2019 02:22:38 PM,02/13/2020 10:26:31 PM,03/06/2019 03:34:07 PM,4200 W JACKSON BLVD,,,60624,4200,W,JACKSON,BLVD,false,false,,,26,28,6,F023,1,11,1115,26,Wednesday,14,3,2,1148389.313523,1898435.199,41.87725512,-87.730628225,"(41.87725511988273, -87.7306282254323)"
SR19-01076186,Sanitation Code Violation,SCB,Streets and Sanitation,Completed,02/26/2019 03:18:22 PM,02/13/2020 10:26:37 PM,03/01/2019 11:05:19 AM,5440 S WOOD ST,,,60609,5440,S,WOOD,ST,false,false,,,61,16,11,L034,3,09,0932,2,Wednesday,15,3,2,1165210.197339,1868450.281261,41.794632681,-87.669717196,"(41.79463268112931, -87.66971719601854)"
SR19-01076372,Sanitation Code Violation,SCB,Streets and Sanitation,Completed,02/26/2019 03:45:51 PM,02/13/2020 10:26:40 PM,05/28/2019 03:45:09 PM,2858 E 83RD ST,,,60617,2858,E,83RD,ST,false,false,,,46,7,15,X041,2,04,0423,25,Friday,15,3,2,1196902.098075,1850503.357011,41.744655044,-87.554101646,"(41.744655044025286, -87.55410164551854)"
SR19-01076440,Sanitation Code Violation,SCB,Streets and Sanitation,Completed,02/26/2019 03:54:07 PM,02/13/2020 10:26:40 PM,03/01/2019 08:09:36 AM,1800 W 87TH ST,,,60620,1800,W,87TH,ST,false,false,,,71,21,13,L042,1,06,0614,9,Monday,15,3,2,1165750.342445,1847081.224151,41.735981624,-87.668342297,"(41.735981624010726, -87.66834229683509)"
SR19-01076783,Sanitation Code Violation,SCB,Streets and Sanitation,Completed,02/26/2019 04:59:31 PM,02/13/2020 10:26:46 PM,02/28/2019 02:58:42 PM,347 S KARLOV AVE,,,60624,347,S,KARLOV,AVE,false,false,,,26,28,6,F023,3,11,1132,9,Wednesday,16,3,2,1149130.968742,1897851.782768,41.875639835,-87.727920162,"(41.875639835136454, -87.72792016227623)"
SR19-01077020,Sanitation Code Violation,SCB,Streets and Sanitation,Completed,02/26/2019 06:08:54 PM,07/01/2020 12:20:40 AM,03/07/2019 12:33:47 PM,4350 N BROADWAY ST,,,60613,4350,N,BROADWAY,ST,false,false,,,3,46,4,N012,1,19,1915,9,Friday,18,3,2,1168671.341685,1929238.537552,41.961366212,-87.655264155,"(41.96136621201393, -87.65526415523858)"
SR19-01077110,Sanitation Code Violation,SCB,Streets and Sanitation,Completed,02/26/2019 06:35:14 PM,02/13/2020 10:26:48 PM,03/01/2019 08:54:01 AM,2617 S WABASH AVE,,,60616,2617,S,WABASH,AVE,false,false,,,35,3,9,Q028,3,01,0133,18,Tuesday,18,3,2,1177295.195529,1886894.541278,41.844980756,-87.624844246,"(41.844980756006194, -87.62484424590271)"
SR19-01077599,Sanitation Code Violation,SCB,Streets and Sanitation,Completed,02/26/2019 09:21:25 PM,02/13/2020 10:26:57 PM,03/05/2019 07:48:53 AM,628 E 89TH ST,,,,628,E,89TH,ST,false,false,,,44,6,14,R043,3,06,0632,13,Wednesday,21,3,2,1182104.892336,1846179.789205,41.733145596,-87.608453297,"(41.73314559554965, -87.60845329739966)"
SR19-01077968,Sanitation Code Violation,SCB,Streets and Sanitation,Completed,02/26/2019 11:29:47 PM,02/13/2020 10:27:00 PM,03/15/2019 07:30:00 AM,3404 N SHEFFIELD AVE,,,60657,3404,N,SHEFFIELD,AVE,false,false,,,6,44,4,N014,2,19,1924,39,Wednesday,23,3,2,1168992.955928,1922831.553661,41.943778213,-87.654268376,"(41.943778212683455, -87.65426837591829)"
SR19-01078832,Sanitation Code Violation,SCB,Streets and Sanitation,Completed,02/27/2019 08:41:54 AM,02/13/2020 10:27:14 PM,05/28/2019 03:47:11 PM,8714 S MANISTEE AVE,,,60617,8714,S,MANISTEE,AVE,false,false,,,46,7,15,W043,2,04,0423,31,Friday,8,4,2,1196075.143009,1847635.538499,41.736806028,-87.55722642,"(41.736806027823846, -87.5572264198856)"
SR19-01078853,Sanitation Code Violation,SCB,Streets and Sanitation,Completed,02/27/2019 08:46:32 AM,02/13/2020 10:27:14 PM,05/28/2019 03:47:11 PM,8714 S MANISTEE AVE,,,60617,8714,S,MANISTEE,AVE,true,false,,SR19-01078832,46,7,15,W043,2,04,0423,31,Friday,8,4,2,1196075.143009,1847635.538499,41.736806028,-87.55722642,"(41.736806027823846, -87.5572264198856)"
SR19-01078876,Sanitation Code Violation,SCB,Streets and Sanitation,Completed,02/27/2019 08:51:15 AM,02/13/2020 10:27:14 PM,03/01/2019 08:56:45 AM,2900 S MICHIGAN AVE,,,60616,2900,S,MICHIGAN,AVE,false,false,,,35,3,9,Q028,3,01,0133,18,Tuesday,8,4,2,1177647.475017,1885779.636168,41.841913393,-87.623585253,"(41.841913393084894, -87.62358525324017)"
SR19-01078961,Sanitation Code Violation,SCB,Streets and Sanitation,Completed,02/27/2019 09:05:45 AM,02/13/2020 10:27:14 PM,03/29/2019 12:38:59 PM,3316 S LEAVITT ST,,,60608,3316,S,LEAVITT,ST,false,false,,,59,25,8,K029,1,09,0912,32,Thursday,9,4,2,1162161.803989,1882552.376087,41.833394547,-87.680502787,"(41.83339454678185, -87.68050278689633)"
SR19-01079033,Sanitation Code Violation,SCB,Streets and Sanitation,Completed,02/27/2019 09:15:27 AM,06/30/2020 11:38:24 PM,03/07/2019 12:37:57 PM,4350 N BROADWAY ST,,,60613,4350,N,BROADWAY,ST,false,false,,,3,46,4,N012,1,19,1915,9,Friday,9,4,2,1168671.341685,1929238.537552,41.961366212,-87.655264155,"(41.96136621201393, -87.65526415523858)"
SR19-01079137,Sanitation Code Violation,SCB,Streets and Sanitation,Completed,02/27/2019 09:33:50 AM,02/13/2020 10:27:17 PM,04/12/2019 06:52:06 AM,1501 W OHIO ST,,,60642,1501,W,OHIO,ST,false,false,,,24,1,5,M021,1,12,1215,35,Friday,9,4,2,1166024.486461,1904044.723148,41.892290011,-87.665716585,"(41.89229001141269, -87.66571658467767)"
SR19-01079153,Sanitation Code Violation,SCB,Streets and Sanitation,Completed,02/27/2019 09:37:01 AM,02/13/2020 10:27:17 PM,03/06/2019 08:59:19 AM,7533 S SANGAMON ST,,,60620,7533,S,SANGAMON,ST,false,false,,,71,17,11,N040,2,06,0621,9,Thursday,9,4,2,1171361.084935,1854692.311084,41.75674666,-87.647564331,"(41.7567466596818, -87.6475643313868)"
SR19-01079161,Sanitation Code Violation,SCB,Streets and Sanitation,Completed,02/27/2019 09:38:18 AM,02/13/2020 10:27:17 PM,03/19/2019 06:23:30 AM,1407 S CENTRAL PARK AVE,,,60623,1407,S,CENTRAL PARK,AVE,false,false,,,29,24,7,G025,2,10,1021,34,Friday,9,4,2,1152658.355861,1892990.336785,41.86223048,-87.715097378,"(41.86223047973744, -87.71509737812165)"
SR19-01079283,Sanitation Code Violation,SCB,Streets and Sanitation,Completed,02/27/2019 09:54:43 AM,02/13/2020 10:27:20 PM,03/18/2019 05:58:03 AM,2934 W Grand AVE,,,60622,2934,W,Grand,AVE,false,false,,,24,27,5,I020,1,12,1211,21,Thursday,9,4,2,1156575.565993,1905323.721739,41.895996204,-87.700383899,"(41.89599620393981, -87.70038389936424)"
SR19-01079405,Sanitation Code Violation,SCB,Streets and Sanitation,Completed,02/27/2019 10:06:30 AM,02/13/2020 10:27:20 PM,02/28/2019 02:37:50 PM,6400 N GLENWOOD AVE,,,60626,6400,N,GLENWOOD,AVE,false,false,,,77,49,2,M007,3,24,2433,20,Tuesday,10,4,2,1165769.135519,1942650.867336,41.998232595,-87.66554977,"(41.99823259531699, -87.66554977025152)"
SR19-01079476,Sanitation Code Violation,SCB,Streets and Sanitation,Completed,02/27/2019 10:13:25 AM,02/13/2020 10:27:22 PM,05/07/2019 01:46:11 PM,8232 S ELLIS AVE,,,60619,8232,S,ELLIS,AVE,false,false,,,44,8,12,S041,3,06,0631,14,Friday,10,4,2,1184323.06491,1850469.047903,41.744864236,-87.600193296,"(41.74486423643452, -87.60019329624124)"
SR19-01079518,Sanitation Code Violation,SCB,Streets and Sanitation,Completed,02/27/2019 10:18:53 AM,02/13/2020 10:27:22 PM,03/15/2019 11:19:53 AM,6440 S ELLIS AVE,,,60637,6440,S,ELLIS,AVE,false,false,,,42,20,12,S037,1,03,0314,9,Monday,10,4,2,1184080.820047,1862341.238873,41.77744836,-87.60071042,"(41.77744835970548, -87.60071042047798)"
SR19-01079669,Sanitation Code Violation,SCB,Streets and Sanitation,Completed,02/27/2019 10:31:21 AM,02/13/2020 10:27:25 PM,03/04/2019 04:40:03 PM,6908 W ARMITAGE AVE,,,60707,6908,W,ARMITAGE,AVE,false,false,,,25,29,3,Y117,1,25,2512,30,Tuesday,10,4,2,1129987.261807,1912617.651011,41.916508455,-87.797871576,"(41.91650845505554, -87.79787157597731)"
SR19-01079965,Sanitation Code Violation,SCB,Streets and Sanitation,Completed,02/27/2019 10:57:24 AM,02/13/2020 10:27:28 PM,03/12/2019 10:28:42 AM,6112 S MONITOR AVE,,,60638,6112,S,MONITOR,AVE,false,false,,,64,13,10,B036,1,08,0812,1,Monday,10,4,2,1138375.302926,1863340.660816,41.781137289,-87.768244972,"(41.78113728859897, -87.76824497236979)"
SR19-01080146,Sanitation Code Violation,SCB,Streets and Sanitation,Completed,02/27/2019 11:13:06 AM,02/13/2020 10:27:31 PM,02/28/2019 06:03:50 AM,3337 N LAMON AVE,,,60641,3337,N,LAMON,AVE,false,false,,,15,31,3,D014,3,16,1634,34,Thursday,11,4,2,1143118.740852,1921915.221091,41.941786804,-87.749393587,"(41.941786803741785, -87.74939358659515)"
SR19-01080222,Sanitation Code Violation,SCB,Streets and Sanitation,Completed,02/27/2019 11:18:27 AM,02/13/2020 10:27:31 PM,03/29/2019 12:41:17 PM,2012 W 18TH PL,,,60608,2012,W,18TH,PL,false,false,,,31,25,7,K026,3,12,1234,11,Friday,11,4,2,1163163.284034,1891140.5401,41.856940405,-87.676587175,"(41.856940404689084, -87.67658717534711)"
SR19-01080335,Sanitation Code Violation,SCB,Streets and Sanitation,Completed,02/27/2019 11:30:52 AM,02/13/2020 10:27:33 PM,03/01/2019 09:15:20 AM,5443 S INDIANA AVE,,,60615,5443,S,INDIANA,AVE,false,false,,,40,3,12,Q034,3,02,0231,8,Tuesday,11,4,2,1178627.321031,1868827.939551,41.795374258,-87.620505622,"(41.79537425816271, -87.62050562186882)"
SR19-01080412,Sanitation Code Violation,SCB,Streets and Sanitation,Completed,02/27/2019 11:40:34 AM,02/13/2020 10:27:33 PM,03/01/2019 02:11:07 PM,4321 N RIDGEWAY AVE,,,60618,4321,N,RIDGEWAY,AVE,false,false,,,16,35,3,G012,2,17,1723,31,Friday,11,4,2,1150696.394334,1928559.537667,41.959874284,-87.72136792,"(41.95987428395423, -87.7213679201549)"
SR19-01080621,Sanitation Code Violation,SCB,Streets and Sanitation,Completed,02/27/2019 12:05:01 PM,02/13/2020 10:27:36 PM,02/28/2019 02:08:13 PM,6100 W LELAND AVE,,,60630,6100,W,LELAND,AVE,false,false,,,15,38,1,A011,2,16,1622,25,Tuesday,12,4,2,1134773.75162,1930654.386165,41.965919866,-87.779857975,"(41.96591986627477, -87.7798579752932)"
SR19-01080693,Sanitation Code Violation,SCB,Streets and Sanitation,Completed,02/27/2019 12:15:20 PM,02/13/2020 10:27:39 PM,03/05/2019 04:05:54 PM,445 N SPRINGFIELD AVE,,,60624,445,N,SPRINGFIELD,AVE,false,false,,,23,37,6,G021,2,11,1122,3,Thursday,12,4,2,1150371.184951,1902854.875137,41.889344772,-87.723235925,"(41.88934477191815, -87.72323592471385)"
SR19-01080701,Sanitation Code Violation,SCB,Streets and Sanitation,Completed,02/27/2019 12:16:45 PM,02/13/2020 10:27:39 PM,03/07/2019 07:59:14 AM,1911 W LAKE ST,,,60612,1911,W,LAKE,ST,false,false,,,28,27,7,L022,2,12,1223,27,Friday,12,4,2,1163552.902032,1901284.336749,41.884767701,-87.674871448,"(41.884767701112665, -87.67487144847728)"
SR19-01080752,Sanitation Code Violation,SCB,Streets and Sanitation,Completed,02/27/2019 12:22:53 PM,02/13/2020 10:27:39 PM,03/06/2019 07:51:34 AM,6956 S HONORE ST,,,60636,6956,S,HONORE,ST,false,false,,,67,17,11,L038,3,07,0735,19,Thursday,12,4,2,1165158.546892,1858305.073539,41.766794009,-87.670193497,"(41.76679400937305, -87.67019349728263)"
SR19-01081292,Sanitation Code Violation,SCB,Streets and Sanitation,Completed,02/27/2019 01:46:25 PM,02/13/2020 10:27:44 PM,02/28/2019 04:19:16 PM,2613 N LARAMIE AVE,,,60639,2613,N,LARAMIE,AVE,false,false,,,19,31,3,D016,1,25,2514,28,Thursday,13,4,2,1141281.184555,1916965.729971,41.928239054,-87.756269913,"(41.9282390537042, -87.756269913488)"
SR19-01081434,Sanitation Code Violation,SCB,Streets and Sanitation,Completed,02/27/2019 02:10:05 PM,02/13/2020 10:27:47 PM,03/11/2019 01:25:38 PM,8642 S DORCHESTER AVE,,,60619,8642,S,DORCHESTER,AVE,false,false,,,45,8,15,T042,1,04,0412,10,Friday,14,4,2,1187038.215263,1847773.162944,41.737402543,-87.590330011,"(41.73740254346003, -87.5903300107343)"
SR19-01081511,Sanitation Code Violation,SCB,Streets and Sanitation,Completed,02/27/2019 02:22:19 PM,02/13/2020 10:27:50 PM,03/06/2019 07:59:00 AM,4108 W CERMAK RD,,,60623,4108,W,CERMAK,RD,false,false,,,29,24,6,F026,1,10,1012,36,Wednesday,14,4,2,1149250.274756,1889181.88427,41.851846279,-87.727706673,"(41.851846279084114, -87.72770667297851)"
SR19-01081621,Sanitation Code Violation,SCB,Streets and Sanitation,Completed,02/27/2019 02:43:09 PM,02/13/2020 10:27:50 PM,03/05/2019 06:52:21 AM,7618 S SAINT LAWRENCE AVE,,,60619,7618,S,SAINT LAWRENCE,AVE,true,false,,SR19-01068141,69,6,12,R040,2,06,0624,14,Tuesday,14,4,2,1181481.832905,1854523.195665,41.756055218,-87.610479076,"(41.756055218398416, -87.61047907618543)"
SR19-01081728,Sanitation Code Violation,SCB,Streets and Sanitation,Completed,02/27/2019 02:58:06 PM,02/13/2020 10:27:53 PM,02/28/2019 07:06:12 AM,3922 W 56TH PL,,,60629,3922,W,56TH,PL,false,false,,,62,13,10,G035,2,08,0822,3,Tuesday,14,4,2,1151075.967899,1866924.086712,41.79073229,-87.721587476,"(41.790732290154885, -87.72158747593625)"
SR19-01081768,Sanitation Code Violation,SCB,Streets and Sanitation,Completed,02/27/2019 03:04:00 PM,02/13/2020 10:27:53 PM,03/08/2019 06:50:16 AM,1957 S SPAULDING AVE,,,60623,1957,S,SPAULDING,AVE,false,false,,,29,24,7,H026,2,10,1022,10,Friday,15,4,2,1154755.142004,1889928.901331,41.853787864,-87.707482249,"(41.8537878639041, -87.70748224865127)"
SR19-01082348,Sanitation Code Violation,SCB,Streets and Sanitation,Completed,02/27/2019 04:05:13 PM,02/13/2020 10:28:01 PM,02/28/2019 07:45:14 AM,1941 E 71ST ST,,,60649,1941,E,71ST,ST,false,false,,,43,5,12,U039,3,03,0333,36,Friday,16,4,2,1190551.971386,1858190.425551,41.765904469,-87.577121348,"(41.76590446861994, -87.57712134803026)"
SR19-01082357,Sanitation Code Violation,SCB,Streets and Sanitation,Completed,02/27/2019 04:06:12 PM,06/30/2020 11:38:15 PM,03/05/2019 03:50:30 PM,6572 N NORTHWEST HWY,,,60631,6572,N,NORTHWEST,HWY,false,false,,,9,41,1,X106,1,16,1611,15,Monday,16,4,2,1125856.644042,1943053.786981,42.000098487,-87.812367857,"(42.00009848665962, -87.81236785651686)"
SR19-01082366,Sanitation Code Violation,SCB,Streets and Sanitation,Completed,02/27/2019 04:07:52 PM,02/13/2020 10:28:01 PM,03/01/2019 07:37:51 AM,1422 E 69TH ST,,,60637,1422,E,69TH,ST,false,false,,,43,5,12,T038,3,03,0332,30,Monday,16,4,2,1187001.602464,1859624.45464,41.769924489,-87.590089051,"(41.76992448894571, -87.59008905129053)"
SR19-01082479,Sanitation Code Violation,SCB,Streets and Sanitation,Completed,02/27/2019 04:30:13 PM,02/13/2020 10:28:01 PM,03/06/2019 06:30:24 AM,8846 S MICHIGAN AVE,,,60619,8846,S,MICHIGAN,AVE,false,false,,,44,9,14,Q043,3,06,0632,49,Monday,16,4,2,1178608.1855,1846173.738798,41.733209092,-87.621263492,"(41.73320909167227, -87.62126349235788)"
SR19-01082775,Sanitation Code Violation,SCB,Streets and Sanitation,Completed,02/27/2019 05:37:27 PM,02/13/2020 10:28:06 PM,03/01/2019 12:02:14 PM,6208 W WABANSIA AVE,,,60639,6208,W,WABANSIA,AVE,false,false,,,25,29,6,A018,1,25,2513,12,Wednesday,17,4,2,1134696.439764,1910658.741335,41.911050983,-87.780616264,"(41.9110509825076, -87.78061626416384)"
SR19-01083190,Sanitation Code Violation,SCB,Streets and Sanitation,Completed,02/27/2019 08:32:25 PM,02/13/2020 10:28:11 PM,03/12/2019 07:50:01 AM,10409 S DR MARTIN LUTHER KING JR DR,,,60628,10409,S,DR MARTIN LUTHER KING JR,DR,false,false,,,49,9,14,Q047,1,05,0512,40,Wednesday,20,4,2,1180763.048376,1835977.63427,41.705180499,-87.61368149,"(41.70518049899645, -87.61368149038425)"
SR19-01083203,Sanitation Code Violation,SCB,Streets and Sanitation,Completed,02/27/2019 08:37:13 PM,02/13/2020 10:28:11 PM,03/01/2019 11:48:27 AM,2614 W LELAND AVE,,,,2614,W,LELAND,AVE,false,false,,,4,47,2,J011,1,19,1911,42,Thursday,20,4,2,1158022.771388,1931127.928969,41.966775358,-87.694362289,"(41.96677535807069, -87.69436228946078)"
SR19-01084211,Sanitation Code Violation,SCB,Streets and Sanitation,Completed,02/28/2019 07:28:54 AM,02/13/2020 10:28:23 PM,03/01/2019 07:59:48 AM,6900 S CHAPPEL AVE,,,60649,6900,S,CHAPPEL,AVE,false,false,,,43,5,12,V038,3,03,0331,31,Monday,7,5,2,1190985.327495,1859566.418226,41.769669836,-87.575488539,"(41.76966983619429, -87.57548853914116)"
SR19-01084254,Sanitation Code Violation,SCB,Streets and Sanitation,Completed,02/28/2019 07:36:12 AM,02/13/2020 10:28:23 PM,03/12/2019 07:56:47 AM,12143 S YALE AVE,,,60628,12143,S,YALE,AVE,false,false,,,53,9,14,P051,2,05,0523,18,Tuesday,7,5,2,1176885.041252,1824223.408957,41.673013201,-87.628234549,"(41.673013200945064, -87.6282345490599)"
SR19-01084609,Sanitation Code Violation,SCB,Streets and Sanitation,Completed,02/28/2019 08:31:20 AM,02/13/2020 10:28:28 PM,03/01/2019 03:03:07 PM,3347 N LAMON AVE,,,60641,3347,N,LAMON,AVE,false,false,,,15,31,3,D014,3,16,1634,34,Thursday,8,5,2,1143116.256678,1922010.800314,41.942049129,-87.749400324,"(41.94204912853853, -87.74940032403629)"
SR19-01084764,Sanitation Code Violation,SCB,Streets and Sanitation,Completed,02/28/2019 08:51:02 AM,02/13/2020 10:28:31 PM,03/01/2019 07:45:26 AM,7038 S PAXTON AVE,,,60649,7038,S,PAXTON,AVE,false,false,,,43,5,12,V038,3,03,0331,26,Monday,8,5,2,1192017.544847,1858568.089004,41.766905323,-87.571737359,"(41.76690532340682, -87.57173735931889)"
SR19-01084794,Sanitation Code Violation,SCB,Streets and Sanitation,Completed,02/28/2019 08:53:24 AM,02/13/2020 10:28:31 PM,03/01/2019 07:53:04 AM,7001 S MERRILL AVE,,,60649,7001,S,MERRILL,AVE,false,false,,,43,5,12,V038,3,03,0331,38,Monday,8,5,2,1191765.595114,1858941.148148,41.767935145,-87.572648746,"(41.76793514486131, -87.57264874566899)"
SR19-01084834,Sanitation Code Violation,SCB,Streets and Sanitation,Completed,02/28/2019 08:57:53 AM,02/13/2020 10:28:31 PM,04/01/2019 06:53:20 AM,1731 W ERIE ST,,,60622,1731,W,ERIE,ST,false,false,,,24,1,5,L021,1,12,1215,33,Friday,8,5,2,1164607.588146,1904323.44971,41.893084993,-87.67091234,"(41.893084992999796, -87.67091233959499)"
SR19-01084845,Sanitation Code Violation,SCB,Streets and Sanitation,Completed,02/28/2019 08:58:42 AM,02/13/2020 10:28:31 PM,03/07/2019 08:09:44 AM,6600 S STONY ISLAND AVE,,,60637,6600,S,STONY ISLAND,AVE,false,false,,,42,5,12,T037,2,03,0321,5,Monday,8,5,2,1187911.968472,1861437.093633,41.774876887,-87.586694406,"(41.774876886967355, -87.58669440603796)"
SR19-01085444,Sanitation Code Violation,SCB,Streets and Sanitation,Completed,02/28/2019 10:14:50 AM,02/13/2020 10:28:39 PM,03/01/2019 08:56:46 AM,2900 S MICHIGAN AVE,,,60616,2900,S,MICHIGAN,AVE,true,false,,SR19-01078876,35,3,9,Q028,3,01,0133,18,Tuesday,10,5,2,1177647.475017,1885779.636168,41.841913393,-87.623585253,"(41.841913393084894, -87.62358525324017)"
SR19-01085560,Sanitation Code Violation,SCB,Streets and Sanitation,Completed,02/28/2019 10:28:31 AM,02/13/2020 10:28:42 PM,02/28/2019 11:52:30 AM,5100 S WOODLAWN AVE,,,60615,5100,S,WOODLAWN,AVE,false,false,,,41,4,9,T034,3,02,0233,1,Monday,10,5,2,1185084.179592,1871400.22452,41.802283447,-87.596747621,"(41.80228344740325, -87.59674762146315)"
SR19-01085822,Sanitation Code Violation,SCB,Streets and Sanitation,Completed,02/28/2019 10:57:41 AM,02/13/2020 10:28:45 PM,03/29/2019 11:02:44 AM,232 W 22ND PL,,,60616,232,W,22ND,PL,false,false,,,34,25,9,P027,1,09,0914,6,Tuesday,10,5,2,1174963.558812,1889502.569254,41.852189847,-87.633322946,"(41.852189847446716, -87.63332294635103)"
SR19-01086722,Sanitation Code Violation,SCB,Streets and Sanitation,Completed,02/28/2019 11:33:24 AM,02/13/2020 10:28:55 PM,03/11/2019 07:53:34 AM,6218 S KEDVALE AVE,,,60629,6218,S,KEDVALE,AVE,false,false,,,65,23,10,F036,1,08,0813,10,Tuesday,11,5,2,1149703.227576,1862936.832278,41.77981733,-87.726724198,"(41.77981732952903, -87.72672419758707)"
SR19-01086996,Sanitation Code Violation,SCB,Streets and Sanitation,Completed,02/28/2019 12:04:09 PM,02/13/2020 10:29:00 PM,03/01/2019 02:28:46 PM,1953 W IOWA ST,,,60622,1953,W,IOWA,ST,false,false,,,24,2,5,L020,1,12,1212,4,Friday,12,5,2,1163001.737347,1905999.100715,41.89771698,-87.676762924,"(41.8977169798596, -87.67676292441152)"
