ID,LICENSE ID,ACCOUNT NUMBER,SITE NUMBER,LEGAL NAME,DOING BUSINESS AS NAME,ADDRESS,CITY,STATE,ZIP CODE,WARD,PRECINCT,WARD PRECINCT,POLICE DISTRICT,LICENSE CODE,LICENSE DESCRIPTION,BUSINESS ACTIVITY ID,BUSINESS ACTIVITY,LICENSE NUMBER,APPLICATION TYPE,APPLICATION CREATED DATE,APPLICATION REQUIREMENTS COMPLETE,PAYMENT DATE,CONDITIONAL APPROVAL,LICENSE TERM START DATE,LICENSE TERM EXPIRATION DATE,LICENSE APPROVED FOR ISSUANCE,DATE ISSUED,LICENSE STATUS,LICENSE STATUS CHANGE DATE,SSA,LATITUDE,LONGITUDE,LOCATION
1478387-20201116,2751161,273724,1,"CTA FOODS, INC.",MUNICIPAL FOODS,2559 W DIVISION ST,CHICAGO,IL,60622,26,41,26-41,12,1474,Package Goods,774,Retail Sales of Packaged Liquor,1478387,RENEW,,09/15/2020,10/08/2020,N,11/16/2020,11/15/2022,10/08/2020,11/13/2020,AAI,,,41.902859234,-87.691888584,"(41.90285923421055, -87.69188858431286)"
2704076-20201113,2704076,464153,1,"VERVE WINE CHICAGO, LLC",VERVE WINE,2349 N LINCOLN AVE 1 A-1-130,CHICAGO,IL,60614,43,29,43-29,18,1475,Consumption on Premises - Incidental Activity,638,Consumption of Liquor on Premises,2704076,ISSUE,12/04/2019,11/02/2020,12/17/2019,Y,11/13/2020,11/15/2022,11/13/2020,11/13/2020,AAI,,35,41.924818603,-87.647671335,"(41.92481860342548, -87.64767133453772)"
2595173-20201016,2748406,426346,1,HOSPITALITY 201 LLC,HOSPITALITY 201 LLC,744 N DAMEN AVE 1ST B,CHICAGO,IL,60622,1,32,1-32,12,1481,Caterer's Liquor License,630,Catering of Liquor To Events,2595173,RENEW,,08/15/2020,10/16/2020,N,10/16/2020,04/15/2022,10/16/2020,11/13/2020,AAI,,29,41.895428997,-87.677185287,"(41.89542899660331, -87.67718528705265)"
15195-20201116,2750076,6643,1,STARDUST CASINO INC.,STARDUST,5688 N MILWAUKEE AVE 1ST,CHICAGO,IL,60646,45,27,45-27,16,1475,Consumption on Premises - Incidental Activity,638,Consumption of Liquor on Premises,15195,RENEW,,09/15/2020,11/13/2020,N,11/16/2020,11/15/2022,11/13/2020,11/13/2020,AAI,,,41.984983519,-87.776417847,"(41.98498351871542, -87.77641784679408)"
2079691-20201116,2751714,356245,1,MAI CHI CORPORATION,MOTT ST.,1401 N ASHLAND AVE 1ST,CHICAGO,IL,60622,2,26,2-26,14,1477,Outdoor Patio,784,Sale of Liquor Outdoors on Private Property,2079691,RENEW,,09/15/2020,11/12/2020,N,11/16/2020,11/15/2022,11/12/2020,11/13/2020,AAI,,33,41.90703875,-87.667444076,"(41.90703874954132, -87.66744407587532)"
27836-20201116,2750193,11380,1,CATERING CONCEPTS CORPORATION,GALA BANQUETS,5639 N MILWAUKEE AVE  NORTH,CHICAGO,IL,60646,45,9,45-9,16,1475,Consumption on Premises - Incidental Activity,638,Consumption of Liquor on Premises,27836,RENEW,,09/15/2020,11/13/2020,N,11/16/2020,11/15/2022,11/13/2020,11/13/2020,AAI,,,41.984010866,-87.775172469,"(41.98401086554883, -87.77517246896801)"
2013502-20201116,2751271,294486,2,"WESTSIDE RAIL, INC.",THE CONTINENTAL LOUNGE,2801 W CHICAGO AVE 1&2,CHICAGO,IL,60622,26,33,26-33,12,1470,Tavern,829,Tavern - Consumption of Liquor on Premise,2013502,RENEW,,09/15/2020,11/13/2020,N,11/16/2020,11/15/2022,11/13/2020,11/13/2020,AAI,,,41.895543708,-87.69676464,"(41.895543708081156, -87.69676464023073)"
2088797-20201116,2751495,326047,3,"CITY PROVISIONS, LLC",CITY PROVISIONS CATERING AND EVENTS,1816-1820 W WILSON AVE,CHICAGO,IL,60640,47,36,47-36,19,1475,Consumption on Premises - Incidental Activity,638,Consumption of Liquor on Premises,2088797,RENEW,,09/15/2020,11/13/2020,N,11/16/2020,11/15/2022,11/13/2020,11/13/2020,AAI,,31,41.965258595,-87.6753727,"(41.96525859487773, -87.67537270043624)"
2320362-20201116,2750466,29220,1,RAINBO CLUB INC,RAINBO CLUB INC,1150 N DAMEN AVE,CHICAGO,IL,60622,1,3,1-3,12,1050,Public Place of Amusement,744,Provides Onsite Entertainment or Rentals,2320362,RENEW,,09/15/2020,10/20/2020,N,11/16/2020,11/15/2022,11/12/2020,11/13/2020,AAI,,33,41.902868984,-87.677395215,"(41.90286898429872, -87.67739521542943)"
2658093-20201113,2658093,337571,25,KOVAL INC.,KOVAL DISTILLERY,4241 N RAVENSWOOD AVE 1,CHICAGO,IL,60613,47,39,47-39,19,1474,Package Goods,774,Retail Sales of Packaged Liquor,2658093,ISSUE,03/22/2019,12/23/2019,12/16/2019,Y,11/13/2020,11/15/2022,11/13/2020,11/13/2020,AAI,,31,41.959105443,-87.673762277,"(41.959105443227436, -87.67376227707415)"
2065224-20201116,2751715,356245,1,MAI CHI CORPORATION,MOTT ST.,1401 N ASHLAND AVE 1ST,CHICAGO,IL,60622,2,26,2-26,14,1475,Consumption on Premises - Incidental Activity,638,Consumption of Liquor on Premises,2065224,RENEW,,09/15/2020,11/12/2020,N,11/16/2020,11/15/2022,11/12/2020,11/13/2020,AAI,,33,41.90703875,-87.667444076,"(41.90703874954132, -87.66744407587532)"
12588-20201116,2750068,6090,1,THE BREAKFAST CLUB INC,THE BREAKFAST CLUB INC,1381 W HUBBARD ST,CHICAGO,IL,60642,27,33,27-33,12,1475,Consumption on Premises - Incidental Activity,638,Consumption of Liquor on Premises,12588,RENEW,,09/15/2020,11/12/2020,N,11/16/2020,11/15/2022,11/12/2020,11/13/2020,AAI,,,41.88983286,-87.662167835,"(41.8898328600129, -87.662167834679)"
1873282-20201216,2755347,299177,1,LOS POTRILLOS FOOD MARKET LLC,LOS POTRILLOS,3624 W BELMONT AVE,CHICAGO,IL,60618,30,33,30-33,17,1474,Package Goods,774,Retail Sales of Packaged Liquor,1873282,RENEW,,10/15/2020,11/13/2020,N,12/16/2020,12/15/2022,11/13/2020,11/13/2020,AAI,,,41.939309516,-87.718539941,"(41.93930951600574, -87.718539940519)"
2717686-20201113,2717686,464153,1,"VERVE WINE CHICAGO, LLC",VERVE WINE,2349 N LINCOLN AVE 1 A-1-130,CHICAGO,IL,60614,43,29,43-29,18,1474,Package Goods,774,Retail Sales of Packaged Liquor,2717686,ISSUE,02/19/2020,10/05/2020,07/31/2020,N,11/13/2020,11/15/2022,11/13/2020,11/13/2020,AAI,,35,41.924818603,-87.647671335,"(41.92481860342548, -87.64767133453772)"
2013506-20201116,2751270,294486,2,"WESTSIDE RAIL, INC.",THE CONTINENTAL LOUNGE,2801 W CHICAGO AVE 1&2,CHICAGO,IL,60622,26,33,26-33,12,1477,Outdoor Patio,784,Sale of Liquor Outdoors on Private Property,2013506,RENEW,,09/15/2020,11/13/2020,N,11/16/2020,11/15/2022,11/13/2020,11/13/2020,AAI,,,41.895543708,-87.69676464,"(41.895543708081156, -87.69676464023073)"
2064172-20201216,2755754,357377,1,CONRAY CORPORATION,7-ELEVEN #33508C,2181 N CLYBOURN AVE 1,CHICAGO,IL,60614,2,37,2-37,18,1474,Package Goods,774,Retail Sales of Packaged Liquor,2064172,RENEW,,10/15/2020,11/12/2020,N,12/16/2020,12/15/2022,11/12/2020,11/13/2020,AAI,,,41.921178384,-87.663579385,"(41.921178383612904, -87.66357938528952)"
2013503-20201116,2751272,294486,2,"WESTSIDE RAIL, INC.",THE CONTINENTAL LOUNGE,2801 W CHICAGO AVE 1&2,CHICAGO,IL,60622,26,33,26-33,12,1471,Late Hour,785,"Sale of Liquor Until 4am, Monday - Saturday and 5am on Sunday",2013503,RENEW,,09/15/2020,11/13/2020,N,11/16/2020,11/15/2022,11/13/2020,11/13/2020,AAI,,,41.895543708,-87.69676464,"(41.895543708081156, -87.69676464023073)"
1999099-20201116,2751494,326047,3,"CITY PROVISIONS, LLC",CITY PROVISIONS CATERING AND EVENTS,1816-1820 W WILSON AVE,CHICAGO,IL,60640,47,36,47-36,19,1474,Package Goods,774,Retail Sales of Packaged Liquor,1999099,RENEW,,09/15/2020,11/13/2020,N,11/16/2020,11/15/2022,11/13/2020,11/13/2020,AAI,,31,41.965258595,-87.6753727,"(41.96525859487773, -87.67537270043624)"
28158-20201116,2750490,30962,1,1858 CORPORATION,Nildas Place,1858 W IOWA ST 1ST,CHICAGO,IL,60622,2,3,2-3,12,1470,Tavern,829,Tavern - Consumption of Liquor on Premise,28158,RENEW,,09/15/2020,11/13/2020,N,11/16/2020,11/15/2022,11/13/2020,11/13/2020,AAI,,,41.897878105,-87.67460367,"(41.8978781045364, -87.67460366979881)"
42867-20200916,2739114,14423,2,LYRIC OPERA OF CHICAGO,LYRIC OPERA OF CHICAGO,20 N WACKER DR 2ND,CHICAGO,IL,60606,42,9,42-9,1,1473,Not-For-Profit Club,639,Consumption of Liquor on Premises - Not for Profit,42867,RENEW,,07/15/2020,09/01/2020,N,09/16/2020,09/15/2022,09/01/2020,10/16/2020,AAI,,,41.882410906,-87.63717471,"(41.88241090648542, -87.63717471046387)"
2549801-20200416,2713781,4116,2,UNIVERSITY CLUB OF CHICAGO,UNIVERSITY CLUB OF CHICAGO,76 E MONROE ST LL-12,CHICAGO,IL,60603,42,9,42-9,1,1473,Not-For-Profit Club,639,Consumption of Liquor on Premises - Not for Profit,2549801,RENEW,,02/15/2020,03/04/2020,N,04/16/2020,04/15/2022,03/04/2020,03/09/2020,AAI,,,41.880924035,-87.6249342,"(41.88092403509479, -87.62493419985192)"
2583829-20200218,2583829,425563,1,"GAELIC FIRE BRIGADE, INC.","GAELIC FIRE BRIGADE, INC.",10627 S PULASKI RD 1,CHICAGO,IL,60655,19,16,19-16,22,1473,Not-For-Profit Club,639,Consumption of Liquor on Premises - Not for Profit,2583829,ISSUE,03/07/2018,01/17/2020,01/07/2020,Y,02/18/2020,02/15/2022,02/18/2020,02/18/2020,AAI,,,41.699590164,-87.720524834,"(41.69959016411553, -87.72052483447736)"
29163-20200416,2714038,11602,1,CLIFF DWELLERS,THE CLIFF DWELLERS,200 S MICHIGAN AVE 22ND,CHICAGO,IL,60604,42,9,42-9,1,1473,Not-For-Profit Club,639,Consumption of Liquor on Premises - Not for Profit,29163,RENEW,,02/15/2020,04/01/2020,N,04/16/2020,04/15/2022,04/01/2020,04/02/2020,AAI,,,41.879489329,-87.624498125,"(41.87948932869769, -87.6244981249339)"
49347-20200816,2733593,17164,1,CLUB PARADISE,PARADISE CLUB,4300 W CERMAK RD,CHICAGO,IL,60623,24,58,24-58,10,1473,Not-For-Profit Club,639,Consumption of Liquor on Premises - Not for Profit,49347,RENEW,,06/15/2020,08/10/2020,N,08/16/2020,08/15/2022,08/10/2020,08/11/2020,AAI,,,41.851543684,-87.732199832,"(41.851543684489044, -87.7321998316158)"
33322-20200816,2734278,63876,2,AMERICAN AID SOCIETY OF GERMAN DESCENDANTS,AMERICAN AID SOCIETY,6540 N MILWAUKEE AVE,CHICAGO,IL,60631,41,23,41-23,16,1473,Not-For-Profit Club,639,Consumption of Liquor on Premises - Not for Profit,33322,RENEW,,06/15/2020,07/31/2020,N,08/16/2020,08/15/2022,07/31/2020,08/03/2020,AAI,,,42.000365528,-87.790794962,"(42.00036552780774, -87.79079496182301)"
40544-20191216,2695228,3753,1,IRISH AMERICAN HERITAGE CENTER,IRISH AMERICAN HERITAGE CENTER,4626 N KNOX AVE,CHICAGO,IL,60630,39,12,39-12,17,1473,Not-For-Profit Club,639,Consumption of Liquor on Premises - Not for Profit,40544,RENEW,,10/15/2019,10/25/2019,N,12/16/2019,12/15/2021,10/25/2019,01/17/2020,AAI,,,41.96524258,-87.744116732,"(41.965242580480265, -87.74411673243358)"
29501-20191216,2695510,11683,1,"PO-PIEDMONT CLUB,INC","PO-PIEDMONT CLUB,INC",2408 S OAKLEY AVE  1,CHICAGO,IL,60608,25,5,25-5,10,1473,Not-For-Profit Club,639,Consumption of Liquor on Premises - Not for Profit,29501,RENEW,,10/15/2019,12/14/2019,N,12/16/2019,12/15/2021,12/14/2019,12/16/2019,AAI,,,41.848116785,-87.683232854,"(41.84811678478677, -87.68323285389499)"
2133-20200116,2700837,24256,1,'FLAGS' SOCIAL & ATHLETIC CLUB,FLAGS SOCIAL & ATHLETIC CLUB,552 W 47TH ST 1ST,CHICAGO,IL,60609,11,12,11-12,9,1473,Not-For-Profit Club,639,Consumption of Liquor on Premises - Not for Profit,2133,RENEW,,11/15/2019,12/20/2019,N,01/16/2020,01/15/2022,12/20/2019,12/20/2019,AAI,,,41.809068058,-87.64033288,"(41.80906805837132, -87.64033287979429)"
38583-20200716,2728658,425,1,BRANCH VITEZ RAFAEL BOBAN,THE CROATIAN CLUB,9629 S COMMERCIAL AVE 1ST,CHICAGO,IL,60617,10,45,10-45,4,1473,Not-For-Profit Club,639,Consumption of Liquor on Premises - Not for Profit,38583,RENEW,,05/15/2020,07/21/2020,N,07/16/2020,07/15/2022,07/21/2020,07/22/2020,AAI,,,41.720056612,-87.550894542,"(41.720056611772875, -87.5508945422397)"
1969509-20191116,2692278,336823,1,LATIN AMERICAN MOTORCYCLE ASSOCIATION,LATIN AMERICAN MOTORCYCLE ASSOCIATION,3517-3519 W FULLERTON AVE 1ST,CHICAGO,IL,60647,35,60,35-60,14,1473,Not-For-Profit Club,639,Consumption of Liquor on Premises - Not for Profit,1969509,RENEW,,09/15/2019,11/14/2019,N,11/16/2019,11/15/2021,11/14/2019,11/15/2019,AAI,,,41.924524304,-87.714508655,"(41.92452430429734, -87.7145086554189)"
2143-20201016,2745732,24264,1,"GEORGE L. GILES POST NO. 87 THE AMERICAN LEGION, DEPARTMENT OF ILLINOIS",GEORGE L GILES POST #87,5745 S STATE ST 1ST,CHICAGO,IL,60621,20,33,20-33,2,1473,Not-For-Profit Club,639,Consumption of Liquor on Premises - Not for Profit,2143,RENEW,,08/15/2020,10/13/2020,N,10/16/2020,10/15/2022,10/13/2020,10/14/2020,AAI,,,41.789652732,-87.625426543,"(41.78965273234417, -87.62542654330346)"
1991203-20201216,2755676,346666,1,3808 WEST BELMONT CORPORATION,EDELWEISS,3808 W BELMONT AVE 1ST,CHICAGO,IL,60618,30,16,30-16,17,1470,Tavern,829,Tavern - Consumption of Liquor on Premise,1991203,RENEW,,10/15/2020,11/13/2020,N,12/16/2020,12/15/2022,11/13/2020,11/16/2020,AAI,,,41.939259217,-87.722696516,"(41.93925921666965, -87.72269651601053)"
36440-20200116,2700994,33110,1,The American Legion William McKinley Post No. 231,The American Legion William McKinley Post No. 231,1954-1956 W 35TH ST 1ST,CHICAGO,IL,60609,12,18,12-18,9,1473,Not-For-Profit Club,639,Consumption of Liquor on Premises - Not for Profit,36440,RENEW,,11/15/2019,01/13/2020,N,01/16/2020,01/15/2022,01/13/2020,01/14/2020,AAI,,,41.830502049,-87.675052564,"(41.830502048736825, -87.67505256395896)"
48865-20201016,2745587,17088,1,MOST WORSHIPFUL ST. JOHN'S GRAND LODGE,MOST WORSHIPFUL ST. JOHN'S  GRAND LODGE,7443 S INGLESIDE AVE  BANQU,CHICAGO,IL,60619,8,69,8-69,3,1473,Not-For-Profit Club,639,Consumption of Liquor on Premises - Not for Profit,48865,RENEW,,08/15/2020,09/21/2020,N,10/16/2020,10/15/2022,09/21/2020,09/22/2020,AAI,,,41.759168176,-87.60159144,"(41.75916817600598, -87.60159143984758)"
1842769-20201116,2750936,217946,1,MORFE INC.,FOLKLORE,2100 -2102 W DIVISION ST,CHICAGO,IL,60622,2,3,2-3,14,1475,Consumption on Premises - Incidental Activity,638,Consumption of Liquor on Premises,1842769,RENEW,,09/15/2020,11/14/2020,N,11/16/2020,11/15/2022,11/14/2020,11/16/2020,AAI,,33,41.903254515,-87.679825045,"(41.903254515018354, -87.6798250453467)"
2551380-20191216,2697755,420686,1,3848 N. HARLEM TAVERN LLC,Social Junkie,3848 N HARLEM AVE 1,CHICAGO,IL,60634,38,3,38-3,16,1470,Tavern,829,Tavern - Consumption of Liquor on Premise,2551380,RENEW,,10/15/2019,12/12/2019,N,12/16/2019,12/15/2021,12/12/2019,12/13/2019,AAI,,,41.950347693,-87.807329446,"(41.95034769269968, -87.80732944580947)"
42196-20201216,2754547,11537,1,"RHEINISCHER VEREIN 1890, INC.","RHEINISCHER VEREIN, INC.",4265 N ELSTON AVE,CHICAGO,IL,60618,39,28,39-28,17,1473,Not-For-Profit Club,639,Consumption of Liquor on Premises - Not for Profit,42196,RENEW,,10/15/2020,11/11/2020,N,12/16/2020,12/15/2022,11/11/2020,11/16/2020,AAI,,,41.95864912,-87.726169548,"(41.958649120186195, -87.72616954836586)"
34778-20191216,2695524,14913,1,"UNITED SERBS SPORT CLUB, INC.",UNITED SERBS SPORT CLUB INC,4526 N MILWAUKEE AVE  1ST,CHICAGO,IL,60630,45,25,45-25,16,1473,Not-For-Profit Club,639,Consumption of Liquor on Premises - Not for Profit,34778,RENEW,,10/15/2019,12/04/2019,N,12/16/2019,12/15/2021,12/04/2019,12/05/2019,AAI,,,41.96304074,-87.756739946,"(41.963040740215355, -87.75673994572672)"
28892-20201016,2745980,63691,1,BURNHAM PARK YACHT CLUB,BURNHAM PARK YACHT CLUB,1500 S LINN WHITE DR 1ST,CHICAGO,IL,60605,4,,4-,1,1473,Not-For-Profit Club,639,Consumption of Liquor on Premises - Not for Profit,28892,RENEW,,08/15/2020,10/14/2020,N,10/16/2020,10/15/2022,10/14/2020,10/15/2020,AAI,,,41.862306077,-87.609522247,"(41.862306077461064, -87.60952224708733)"
24813-20200116,2700723,10112,1,CLEARING MEN'S CLUB,CLEARING MEN'S CLUB,5752 W 63RD PL,CHICAGO,IL,60638,13,49,13-49,8,1473,Not-For-Profit Club,639,Consumption of Liquor on Premises - Not for Profit,24813,RENEW,,11/15/2019,01/10/2020,N,01/16/2020,01/15/2022,01/10/2020,01/13/2020,AAI,,,41.777248076,-87.766230997,"(41.77724807588118, -87.7662309969763)"
42240-20200716,2729129,34722,1,"CALUMET YACHT CLUB, INC.",CALUMET YACHT CLUB,4025 E 102ND ST 1ST,CHICAGO,IL,60617,10,26,10-26,4,1473,Not-For-Profit Club,639,Consumption of Liquor on Premises - Not for Profit,42240,RENEW,,05/15/2020,06/10/2020,N,07/16/2020,07/15/2022,06/10/2020,06/11/2020,AAI,,,41.70947892,-87.526173571,"(41.709478919734515, -87.52617357053239)"
8291-20200216,2704654,3571,1,THE RACQUET CLUB OF CHICAGO,THE RACQUET CLUB OF CHICAGO,1365 N DEARBORN ST,CHICAGO,IL,60610,2,16,2-16,18,1473,Not-For-Profit Club,639,Consumption of Liquor on Premises - Not for Profit,8291,RENEW,,12/15/2019,01/15/2020,N,02/16/2020,02/15/2022,01/15/2020,01/16/2020,AAI,,,41.907636295,-87.629952304,"(41.907636294514994, -87.62995230434338)"
41421-20201116,2750524,34504,1,"GUS MAZAN TAP, INC.",GUS MAZAN TAP,1013 N WESTERN AVE 1ST,CHICAGO,IL,60622,1,26,1-26,12,1470,Tavern,829,Tavern - Consumption of Liquor on Premise,41421,RENEW,,09/15/2020,11/13/2020,N,11/16/2020,11/15/2022,11/13/2020,11/16/2020,AAI,,,41.899838283,-87.686802366,"(41.89983828324747, -87.68680236645159)"
47016-20200316,2710041,64396,1,LOGAN-AVONDALE VFW # 2978,LOGAN-AVONDALE VFW #2978,3007 N KEDZIE AVE 1ST,CHICAGO,IL,60618,33,1,33-1,14,1473,Not-For-Profit Club,639,Consumption of Liquor on Premises - Not for Profit,47016,RENEW,,01/15/2020,03/05/2020,N,03/16/2020,03/15/2022,03/05/2020,03/05/2020,AAI,,,41.935960596,-87.707389085,"(41.93596059560815, -87.70738908487385)"
2131-20200116,2701621,86501,2,RHINE POST #2729 V F W,MEMORIAL HALL CLUB,5856 S ARCHER AVE 1ST,CHICAGO,IL,60638,14,48,14-48,8,1473,Not-For-Profit Club,639,Consumption of Liquor on Premises - Not for Profit,2131,RENEW,,11/15/2019,01/09/2020,N,01/16/2020,01/15/2022,01/09/2020,01/09/2020,AAI,,,41.796040889,-87.760976869,"(41.796040888991286, -87.76097686915702)"
2141-20201116,2750396,24262,1,"FRANKLIN DELANO ROOSEVELT POST, INC.,NO. 923, AMERICAN LEGION",FRANKLIN D ROOSEVELT POST 923,1824 W CORTLAND ST BASEM,CHICAGO,IL,60622,32,31,32-31,14,1473,Not-For-Profit Club,639,Consumption of Liquor on Premises - Not for Profit,2141,RENEW,,09/15/2020,11/02/2020,N,11/16/2020,11/15/2022,11/02/2020,11/03/2020,AAI,,,41.916118213,-87.673790066,"(41.91611821313358, -87.6737900661716)"
2289366-20200916,2739053,12034,1,THE SKY-LINE CLUB,THE SKY - LINE CLUB,307 N MICHIGAN AVE  2400,CHICAGO,IL,60601,42,44,42-44,1,1473,Not-For-Profit Club,639,Consumption of Liquor on Premises - Not for Profit,2289366,RENEW,,07/15/2020,09/15/2020,N,09/16/2020,09/15/2022,09/15/2020,09/16/2020,AAI,,,41.887004423,-87.624394657,"(41.88700442325107, -87.62439465711454)"
37003-20201116,2750245,15331,1,"EL CHILE, INC.",LA CONDESA,1003 N ASHLAND AVE,CHICAGO,IL,60622,2,56,2-56,12,1475,Consumption on Premises - Incidental Activity,638,Consumption of Liquor on Premises,37003,RENEW,,09/15/2020,11/13/2020,N,11/16/2020,11/15/2022,11/13/2020,11/16/2020,AAI,,29,41.899818662,-87.667248578,"(41.899818661508206, -87.6672485778532)"
2159-20200116,2700838,24271,1,CANARYVILLE S. A. C.,CANARYVILLE S A C,458 W 45TH ST  ENTIR,CHICAGO,IL,60609,11,48,11-48,9,1473,Not-For-Profit Club,639,Consumption of Liquor on Premises - Not for Profit,2159,RENEW,,11/15/2019,12/27/2019,N,01/16/2020,01/15/2022,12/27/2019,12/30/2019,AAI,,,41.812765726,-87.638226838,"(41.81276572641788, -87.63822683848521)"
2551381-20191216,2697756,420686,1,3848 N. HARLEM TAVERN LLC,Social Junkie,3848 N HARLEM AVE 1,CHICAGO,IL,60634,38,3,38-3,16,1477,Outdoor Patio,784,Sale of Liquor Outdoors on Private Property,2551381,RENEW,,10/15/2019,12/12/2019,N,12/16/2019,12/15/2021,12/12/2019,12/13/2019,AAI,,,41.950347693,-87.807329446,"(41.95034769269968, -87.80732944580947)"
26543-20200116,2700729,11050,2,CROATION AMERICAN RADIO CLUB,CROATION AMERICAN RADIO CLUB,7036 W ARCHER AVE  1,CHICAGO,IL,60638,23,52,23-52,8,1473,Not-For-Profit Club,639,Consumption of Liquor on Premises - Not for Profit,26543,RENEW,,11/15/2019,01/07/2020,N,01/16/2020,01/15/2022,01/07/2020,01/08/2020,AAI,,,41.792129429,-87.797970995,"(41.79212942932081, -87.79797099475219)"
44440-20191116,2690716,14212,1,CHICAGO MIDNIGHT RIDERS,CHICAGO MIDNIGHT RIDERS,3803 W CHICAGO AVE,CHICAGO,IL,60651,27,47,27-47,11,1473,Not-For-Profit Club,639,Consumption of Liquor on Premises - Not for Profit,44440,RENEW,,09/15/2019,11/21/2019,N,11/16/2019,11/15/2021,11/21/2019,11/21/2019,AAI,,63,41.895301902,-87.72134256,"(41.89530190191307, -87.72134256022264)"
31779-20200316,2709955,53739,1,DORMAN-DUNN POST #547 AMERICAN LEGION,DORMAN-DUNN POST #547 AMERICAN LEGION,2129 W CERMAK RD  2,CHICAGO,IL,60608,25,1,25-1,10,1473,Not-For-Profit Club,639,Consumption of Liquor on Premises - Not for Profit,31779,RENEW,,01/15/2020,03/09/2020,N,03/16/2020,03/15/2022,03/09/2020,03/09/2020,AAI,,,41.852009134,-87.679476559,"(41.852009133719456, -87.67947655907231)"
1546133-20200616,2725589,284468,1,CHICAGO CORINTHIAN YACHT CLUB,CORINTHIAN YACHT CLUB,601 W MONTROSE DR 1,CHICAGO,IL,60613,46,33,46-33,19,1473,Not-For-Profit Club,639,Consumption of Liquor on Premises - Not for Profit,1546133,RENEW,,04/15/2020,06/11/2020,N,06/16/2020,06/15/2022,06/11/2020,06/12/2020,AAI,,,41.961920724,-87.645909529,"(41.96192072373917, -87.6459095290921)"
2589091-20200616,2727570,424853,1,THE BLACK FIRE BRIGADE ORG.,THE BLACK FIRE BRIGADE ORG.,8404 S KEDZIE AVE 1,CHICAGO,IL,60652,18,37,18-37,8,1473,Not-For-Profit Club,639,Consumption of Liquor on Premises - Not for Profit,2589091,RENEW,,04/15/2020,06/17/2020,N,06/16/2020,06/15/2022,06/17/2020,06/18/2020,AAI,,,41.740483861,-87.702286918,"(41.74048386093074, -87.70228691835008)"
27884-20191216,2695748,30899,1,CHICAGO - BRIDGEPORT CANTEEN - VFW #5079,CHICAGO - BRIDGEPORT CANTEEN - VFW #5079,3200 S MAY ST 1,CHICAGO,IL,60608,11,44,11-44,9,1473,Not-For-Profit Club,639,Consumption of Liquor on Premises - Not for Profit,27884,RENEW,,10/15/2019,11/25/2019,N,12/16/2019,12/15/2021,11/25/2019,12/02/2019,AAI,,,41.836070809,-87.654896612,"(41.836070809424726, -87.65489661235947)"
1841302-20200516,2720846,296741,2,"KOHAN KAKU, CORPORATION",KOHAN JAPANESE RESTAURANT,730-732 W MAXWELL ST 1,CHICAGO,IL,60607,11,3,11-3,12,1475,Consumption on Premises - Incidental Activity,638,Consumption of Liquor on Premises,1841302,RENEW,,03/15/2020,06/19/2020,N,05/16/2020,05/15/2022,06/19/2020,11/16/2020,AAI,,,41.864901572,-87.646292291,"(41.86490157227488, -87.64629229053516)"
10460-20200216,2704695,4638,1,MONT CLARE LETDEN VETERANS,MONT CLARE LEYDEN VETERANS,6940 W DIVERSEY AVE POST #,CHICAGO,IL,60707,36,14,36-14,25,1473,Not-For-Profit Club,639,Consumption of Liquor on Premises - Not for Profit,10460,RENEW,,12/15/2019,02/06/2020,N,02/16/2020,02/15/2022,02/06/2020,02/07/2020,AAI,,,41.930943088,-87.799595974,"(41.930943088114155, -87.79959597372361)"
1576610-20200816,2733434,14669,2,"LEGAL PAD, INC.",EMERALD ISLE,6684-6686 N NORTHWEST HWY,CHICAGO,IL,60631,41,5,41-5,16,1050,Public Place of Amusement,743,Provides Onsite Amusement or Entertainment,1576610,RENEW,,06/15/2020,10/21/2020,N,08/16/2020,08/15/2022,10/21/2020,11/17/2020,AAI,,,42.002377367,-87.815748422,"(42.0023773668331, -87.81574842158678)"
2528135-20201016,2747874,409581,2,"BAD AXE THROWING USA, INC.",BAD AXE THROWING,2828 N CLARK ST 1,CHICAGO,IL,60657,44,45,44-45,19,1050,Public Place of Amusement,746,"Public Place of Amusement, Provides Entertainment, Room Rentals and Charges a Fee",2528135,RENEW,,08/15/2020,09/21/2020,N,10/16/2020,10/15/2022,10/27/2020,11/17/2020,AAI,,8,41.933474039,-87.645599292,"(41.93347403945103, -87.64559929166136)"
5846-20201216,2754701,25275,1,REGINA & JOE INC,REGINA & JOE'S TAP,2988 N MILWAUKEE AVE 1ST,CHICAGO,IL,60618,30,13,30-13,25,1470,Tavern,829,Tavern - Consumption of Liquor on Premise,5846,RENEW,,10/15/2020,11/16/2020,N,12/16/2020,12/15/2022,11/16/2020,11/17/2020,AAI,,,41.9354824,-87.718151221,"(41.93548239995626, -87.7181512208209)"
2516707-20200916,2743410,414144,1,SMART/OLYMPIA ILLINOIS LLC,SOPHY HYDE PARK,1401-1411 E 53RD ST 1-7,CHICAGO,IL,60615,5,24,5-24,2,1477,Outdoor Patio,784,Sale of Liquor Outdoors on Private Property,2516707,RENEW,,07/15/2020,10/22/2020,N,09/16/2020,09/15/2022,10/22/2020,11/17/2020,AAI,,61,41.799402835,-87.591716635,"(41.799402835491115, -87.59171663522477)"
1576612-20200816,2733435,14669,2,"LEGAL PAD, INC.",EMERALD ISLE,6684-6686 N NORTHWEST HWY,CHICAGO,IL,60631,41,5,41-5,16,1477,Outdoor Patio,784,Sale of Liquor Outdoors on Private Property,1576612,RENEW,,06/15/2020,10/21/2020,N,08/16/2020,08/15/2022,10/21/2020,11/17/2020,AAI,,,42.002377367,-87.815748422,"(42.0023773668331, -87.81574842158678)"
2488364-20201016,2747873,409581,1,"BAD AXE THROWING USA, INC.",BAD AXE THROWING,165-171 N LOOMIS ST 1,CHICAGO,IL,60607,27,33,27-33,12,1050,Public Place of Amusement,746,"Public Place of Amusement, Provides Entertainment, Room Rentals and Charges a Fee",2488364,RENEW,,08/15/2020,09/21/2020,N,10/16/2020,10/15/2022,10/27/2020,11/17/2020,AAI,,,41.88480139,-87.662251598,"(41.88480138960352, -87.6622515982646)"
2516708-20200916,2743408,414144,1,SMART/OLYMPIA ILLINOIS LLC,SOPHY HYDE PARK,1401-1411 E 53RD ST 1-7,CHICAGO,IL,60615,5,24,5-24,2,1475,Consumption on Premises - Incidental Activity,638,Consumption of Liquor on Premises,2516708,RENEW,,07/15/2020,10/22/2020,N,09/16/2020,09/15/2022,10/22/2020,11/17/2020,AAI,,61,41.799402835,-87.591716635,"(41.799402835491115, -87.59171663522477)"
2516706-20200916,2743409,414144,1,SMART/OLYMPIA ILLINOIS LLC,SOPHY HYDE PARK,1401-1411 E 53RD ST 1-7,CHICAGO,IL,60615,5,24,5-24,2,1475,Consumption on Premises - Incidental Activity,638,Consumption of Liquor on Premises,2516706,RENEW,,07/15/2020,10/22/2020,N,09/16/2020,09/15/2022,10/22/2020,11/17/2020,AAI,,61,41.799402835,-87.591716635,"(41.799402835491115, -87.59171663522477)"
1948156-20201216,2755602,339802,1,"DMEN TAP, LLC",DMEN TAP,2849 W BELMONT AVE 1ST,CHICAGO,IL,60618,33,13,33-13,14,1475,Consumption on Premises - Incidental Activity,638,Consumption of Liquor on Premises,1948156,RENEW,,10/15/2020,11/16/2020,N,12/16/2020,12/15/2022,11/16/2020,11/17/2020,AAI,,,41.939272286,-87.699795884,"(41.939272285572955, -87.69979588412592)"
1576611-20200816,2733432,14669,2,"LEGAL PAD, INC.",EMERALD ISLE,6684-6686 N NORTHWEST HWY,CHICAGO,IL,60631,41,5,41-5,16,1475,Consumption on Premises - Incidental Activity,638,Consumption of Liquor on Premises,1576611,RENEW,,06/15/2020,10/21/2020,N,08/16/2020,08/15/2022,10/21/2020,11/17/2020,AAI,,,42.002377367,-87.815748422,"(42.0023773668331, -87.81574842158678)"
1717221-20201016,2746580,305028,1,"DUKE'S COCKTAIL LOUNGE, INC.",DUKE'S COCKTAIL LOUNGE,121-123 E 79TH ST 1,CHICAGO,IL,60619,6,2,6-2,6,1470,Tavern,829,Tavern - Consumption of Liquor on Premise,1717221,RENEW,,08/15/2020,10/29/2020,N,10/16/2020,10/15/2022,10/29/2020,10/30/2020,AAI,,,41.750913104,-87.620391964,"(41.750913103990285, -87.6203919644102)"
83377-20200416,2714622,68427,1,"GALVIN ENTERPRISES, INC.",GALVIN'S PUBLIC HOUSE,5901 W LAWRENCE AVE 1ST,CHICAGO,IL,60630,45,45,45-45,16,1470,Tavern,829,Tavern - Consumption of Liquor on Premise,83377,RENEW,,02/15/2020,10/06/2020,N,04/16/2020,04/15/2022,10/06/2020,11/18/2020,AAI,,,41.967574842,-87.774937634,"(41.96757484163005, -87.77493763409912)"
31968-20201116,2750231,14446,1,EMPTY BOTTLE INC,EMPTY BOTTLE INC,1035 N WESTERN AVE 1ST,CHICAGO,IL,60622,1,44,1-44,12,1470,Tavern,829,Tavern - Consumption of Liquor on Premise,31968,RENEW,,09/15/2020,11/17/2020,N,11/16/2020,11/15/2022,11/17/2020,11/18/2020,AAI,,,41.900402169,-87.686814388,"(41.90040216893255, -87.68681438778759)"
2031720-20201116,2751666,350215,1,"REINS INTERNATIONAL CHICAGO, INC.",GYU-KAKU RESTAURANT,210 E OHIO ST 1-4,CHICAGO,IL,60611,42,35,42-35,18,1475,Consumption on Premises - Incidental Activity,638,Consumption of Liquor on Premises,2031720,RENEW,,09/15/2020,11/03/2020,N,11/16/2020,11/15/2022,11/03/2020,11/18/2020,AAI,,,41.892677172,-87.622194494,"(41.89267717185467, -87.62219449447267)"
2349197-20201116,2751669,350215,2,"REINS INTERNATIONAL CHICAGO, INC.",GYU-KAKU RESTAURANT,1364 W RANDOLPH ST 1ST,CHICAGO,IL,60607,27,33,27-33,12,1475,Consumption on Premises - Incidental Activity,638,Consumption of Liquor on Premises,2349197,RENEW,,09/15/2020,11/03/2020,N,11/16/2020,11/15/2022,11/03/2020,11/18/2020,AAI,,,41.884288898,-87.661279418,"(41.88428889843475, -87.66127941800869)"
2463316-20210116,2761456,405760,1,NORWOOD PARK WINE & SPIRITS INC.,NORWOOD PARK WINE & SPIRITS,6056 N NORTHWEST HWY 1ST,CHICAGO,IL,60631,41,22,41-22,16,1474,Package Goods,774,Retail Sales of Packaged Liquor,2463316,RENEW,,11/15/2020,11/17/2020,N,01/16/2021,01/15/2023,11/17/2020,11/18/2020,AAI,,,41.991304101,-87.797504804,"(41.99130410059285, -87.79750480390851)"
2555534-20201116,2751670,350215,3,"REINS INTERNATIONAL CHICAGO, INC.",GYU-KAKU RESTAURANT,2813 N BROADWAY  1,CHICAGO,IL,60657,44,18,44-18,19,1475,Consumption on Premises - Incidental Activity,638,Consumption of Liquor on Premises,2555534,RENEW,,09/15/2020,11/03/2020,N,11/16/2020,11/15/2022,11/03/2020,11/18/2020,AAI,,8,41.933180957,-87.644649415,"(41.933180956659406, -87.64464941489626)"
2636866-20211116,2811252,387955,2,JBR BREWING LLC,MOODY TONGUE BREWING COMPANY / THE BAR AT MOODY TONGUE / THE DINING ROOM AT MOODY TONGUE,2513-2517 S WABASH AVE 2,CHICAGO,IL,60616,3,18,3-18,1,1475,Consumption on Premises - Incidental Activity,638,Consumption of Liquor on Premises,2636866,RENEW,,09/15/2021,09/15/2021,N,11/16/2021,02/15/2024,09/15/2021,09/16/2021,AAI,,,41.846944869,-87.625213611,"(41.8469448689041, -87.62521361091059)"
33115-20201116,2750234,14642,1,"BONGO ROOM, INC",THE BONGO ROOM,1470 N MILWAUKEE AVE 1ST,CHICAGO,IL,60622,1,10,1-10,14,1475,Consumption on Premises - Incidental Activity,638,Consumption of Liquor on Premises,33115,RENEW,,09/15/2020,11/17/2020,N,11/16/2020,11/15/2022,11/17/2020,11/18/2020,AAI,,33,41.908523906,-87.674797499,"(41.908523906377425, -87.67479749884576)"
1118830-20201116,2750906,208974,1,"RESCO 8, L.L.C.",PIECE,1927 W NORTH AVE 1ST,CHICAGO,IL,60622,2,21,2-21,14,1475,Consumption on Premises - Incidental Activity,638,Consumption of Liquor on Premises,1118830,RENEW,,09/15/2020,11/18/2020,N,11/16/2020,11/15/2022,10/08/2020,10/09/2020,AAI,,33,41.910397186,-87.676181096,"(41.910397185945115, -87.6761810963592)"
2608575-20201216,2756691,428746,1,"URBANA VARRO HOSPITALITY MANAGEMENT COMPANY, LLC",KINZIE HOTEL,20 W KINZIE ST 1-6,CHICAGO,IL,60654,42,25,42-25,18,1475,Consumption on Premises - Incidental Activity,638,Consumption of Liquor on Premises,2608575,RENEW,,10/15/2020,11/18/2020,N,12/16/2020,12/15/2022,11/18/2020,11/19/2020,AAI,,,41.889352033,-87.62884885,"(41.889352033013864, -87.62884885027287)"
2626487-20210116,2761759,431424,1,GARFIELDS BEVERAGE WAREHOUSE WP LLC,GARFIELD'S BEVERAGE,1336 N MILWAUKEE AVE,CHICAGO,IL,60622,1,21,1-21,14,1474,Package Goods,774,Retail Sales of Packaged Liquor,2626487,RENEW,,11/15/2020,11/18/2020,N,01/16/2021,12/15/2022,11/18/2020,11/19/2020,AAI,,33,41.905973105,-87.670801629,"(41.90597310517462, -87.67080162873535)"
2608573-20201216,2756693,428746,1,"URBANA VARRO HOSPITALITY MANAGEMENT COMPANY, LLC",KINZIE HOTEL,20 W KINZIE ST 1-6,CHICAGO,IL,60654,42,25,42-25,18,1475,Consumption on Premises - Incidental Activity,638,Consumption of Liquor on Premises,2608573,RENEW,,10/15/2020,11/18/2020,N,12/16/2020,12/15/2022,11/18/2020,11/19/2020,AAI,,,41.889352033,-87.62884885,"(41.889352033013864, -87.62884885027287)"
2060408-20201216,2755747,357040,1,SIN NOMBRE INC.,MISKAS,2353 N CLARK ST 1,CHICAGO,IL,60614,43,44,43-44,18,1474,Package Goods,774,Retail Sales of Packaged Liquor,2060408,RENEW,,10/15/2020,11/18/2020,N,12/16/2020,12/15/2022,11/18/2020,11/19/2020,AAI,,23,41.925161273,-87.640043887,"(41.9251612730038, -87.64004388691313)"
2608574-20201216,2756689,428746,1,"URBANA VARRO HOSPITALITY MANAGEMENT COMPANY, LLC",KINZIE HOTEL,20 W KINZIE ST 1-6,CHICAGO,IL,60654,42,25,42-25,18,1475,Consumption on Premises - Incidental Activity,638,Consumption of Liquor on Premises,2608574,RENEW,,10/15/2020,11/18/2020,N,12/16/2020,12/15/2022,11/18/2020,11/19/2020,AAI,,,41.889352033,-87.62884885,"(41.889352033013864, -87.62884885027287)"
1921437-20201116,2751451,317383,1,"AJD RESTAURANT GROUP, LLC",SULLY'S HOUSE,1501 N DAYTON ST 1,CHICAGO,IL,60622,2,55,2-55,18,1050,Public Place of Amusement,743,Provides Onsite Amusement or Entertainment,1921437,RENEW,,09/15/2020,09/26/2020,N,11/16/2020,11/15/2022,11/18/2020,11/19/2020,AAI,,,41.908619727,-87.649294571,"(41.90861972732258, -87.64929457094323)"
1227100-20201116,2750904,208974,1,"RESCO 8, L.L.C.",PIECE,1927 W NORTH AVE 1ST,CHICAGO,IL,60622,2,21,2-21,14,1050,Public Place of Amusement,743,Provides Onsite Amusement or Entertainment,1227100,RENEW,,09/15/2020,11/18/2020,N,11/16/2020,11/15/2022,11/18/2020,11/19/2020,AAI,,33,41.910397186,-87.676181096,"(41.910397185945115, -87.6761810963592)"
2492199-20210116,2761488,410112,1,63RD FOOD & LIQUOR INC.,63RD FOOD & LIQUOR,1813 W 63RD ST 1,CHICAGO,IL,60636,15,40,15-40,7,1474,Package Goods,774,Retail Sales of Packaged Liquor,2492199,RENEW,,11/15/2020,01/08/2021,N,01/16/2021,01/15/2023,01/08/2021,01/11/2021,AAI,,,41.77926508,-87.669678332,"(41.779265079527086, -87.66967833181279)"
2373514-20210216,2765656,395294,1,"BURGER BAR CHICAGO SOUTH LOOP, LLC",BURGER BAR CHICAGO,1150 S MICHIGAN AVE 1,CHICAGO,IL,60605,4,8,4-8,1,1475,Consumption on Premises - Incidental Activity,638,Consumption of Liquor on Premises,2373514,RENEW,,12/15/2020,01/08/2021,N,02/16/2021,02/15/2023,01/08/2021,01/11/2021,AAI,,,41.867758644,-87.624256704,"(41.86775864360287, -87.62425670355442)"
2152860-20210216,2765374,371950,1,"3143 WEST LOGAN BLVD, LLC",BILLY SUNDAY,3143 W LOGAN BLVD 1,CHICAGO,IL,60647,32,30,32-30,14,1470,Tavern,829,Tavern - Consumption of Liquor on Premise,2152860,RENEW,,12/15/2020,01/08/2021,N,02/16/2021,02/15/2023,01/08/2021,01/11/2021,AAI,,,41.927863043,-87.706605015,"(41.92786304343622, -87.70660501506578)"
1520397-20201216,2755179,259100,1,TRASPASADA INC.,TRASPASADA RESTAURANT,3144 N CALIFORNIA AVE 1,CHICAGO,IL,60618,33,13,33-13,14,1475,Consumption on Premises - Incidental Activity,638,Consumption of Liquor on Premises,1520397,RENEW,,10/15/2020,01/08/2021,N,12/16/2020,12/15/2022,01/08/2021,01/11/2021,AAI,,,41.938946248,-87.697956176,"(41.938946248449454, -87.69795617571842)"
47217-20210216,2763412,36471,1,"ALLEN GRAHAM VAN HULLE ENTERPRISES, INC.",THE LUCKY HORSESHOE LOUNGE,3169 N HALSTED ST 1ST,CHICAGO,IL,60657,44,21,44-21,19,1470,Tavern,829,Tavern - Consumption of Liquor on Premise,47217,RENEW,,12/15/2020,01/10/2021,N,02/16/2021,02/15/2023,01/10/2021,01/11/2021,AAI,,8,41.939876223,-87.649116442,"(41.9398762229962, -87.64911644222865)"
2154-20201116,2750840,86502,1,AMERICAN UKRAINIAN YOUTH ASSOCIATION,AMERICAN UKRAINIAN YOUTH ASSOCIATION,2455 W CHICAGO AVE  1ST,CHICAGO,IL,60622,26,6,26-6,12,1473,Not-For-Profit Club,639,Consumption of Liquor on Premises - Not for Profit,2154,RENEW,,09/15/2020,11/02/2020,N,11/16/2020,11/15/2022,11/02/2020,01/11/2021,AAI,,,41.895609451,-87.689029092,"(41.89560945124529, -87.68902909242446)"
2359176-20210116,2761057,358925,5,LHC MANAGEMENT LLC,LAKESHORE SPORT & FITNESS,211 N STETSON AVE 4TH FLR,CHICAGO,IL,60601,42,44,42-44,1,1475,Consumption on Premises - Incidental Activity,638,Consumption of Liquor on Premises,2359176,RENEW,,11/15/2020,01/08/2021,N,01/16/2021,01/15/2023,01/08/2021,01/11/2021,AAI,,,41.886027278,-87.622166271,"(41.886027277677655, -87.62216627091873)"
2093001-20210116,2761052,358925,2,LHC MANAGEMENT LLC,LAKESHORE SPORT & FITNESS,1320 W FULLERTON AVE 2,CHICAGO,IL,60614,2,48,2-48,19,1475,Consumption on Premises - Incidental Activity,638,Consumption of Liquor on Premises,2093001,RENEW,,11/15/2020,01/08/2021,N,01/16/2021,01/15/2023,01/08/2021,01/11/2021,AAI,,,41.925357358,-87.661388544,"(41.925357358100776, -87.66138854381815)"
1542918-20201216,2755283,282836,1,VOLO RESTAURANT LLC,VOLO RESTAURANT,2008 W ROSCOE ST 1,CHICAGO,IL,60618,32,21,32-21,19,1475,Consumption on Premises - Incidental Activity,638,Consumption of Liquor on Premises,1542918,RENEW,,10/15/2020,01/10/2021,N,12/16/2020,12/15/2022,01/10/2021,01/11/2021,AAI,,,41.943322631,-87.678849097,"(41.94332263059663, -87.67884909733532)"
35524-20210216,2763139,15078,1,NORTH SHEFFIELD INC,VAUGHAN'S PUB,2917 N SHEFFIELD AVE,CHICAGO,IL,60657,44,29,44-29,19,1470,Tavern,829,Tavern - Consumption of Liquor on Premise,35524,RENEW,,12/15/2020,01/10/2021,N,02/16/2021,02/15/2023,01/10/2021,01/11/2021,AAI,,17,41.935002358,-87.653792375,"(41.93500235831336, -87.65379237472023)"
1577120-20201216,2755282,282836,1,VOLO RESTAURANT LLC,VOLO RESTAURANT,2008 W ROSCOE ST 1,CHICAGO,IL,60618,32,21,32-21,19,1477,Outdoor Patio,784,Sale of Liquor Outdoors on Private Property,1577120,RENEW,,10/15/2020,01/10/2021,N,12/16/2020,12/15/2022,01/10/2021,01/11/2021,AAI,,,41.943322631,-87.678849097,"(41.94332263059663, -87.67884909733532)"
1353924-20210116,2760384,229764,1,LAGO VENTURES INCORPORATED,LAGO BANQUETS,6121 W DIVERSEY AVE # 1ST,CHICAGO,IL,60639,30,2,30-2,25,1481,Caterer's Liquor License,630,Catering of Liquor To Events,1353924,RENEW,,11/15/2020,01/11/2021,N,01/16/2021,01/15/2023,01/11/2021,01/12/2021,AAI,,,41.93098196,-87.779234714,"(41.93098195995931, -87.77923471427376)"
1144031-20210216,2763149,15590,3,"SELECT CUT STEAKHOUSE, INC.",SELECT CUT STEAKHOUSE,2808 - 2810 N HALSTED ST,CHICAGO,IL,60657,44,29,44-29,19,1475,Consumption on Premises - Incidental Activity,638,Consumption of Liquor on Premises,1144031,RENEW,,12/15/2020,01/11/2021,N,02/16/2021,02/15/2023,01/11/2021,01/12/2021,AAI,,8,41.933012046,-87.649169501,"(41.93301204557092, -87.64916950129671)"
1357176-20210116,2760383,229764,1,LAGO VENTURES INCORPORATED,LAGO BANQUETS,6121 W DIVERSEY AVE # 1ST,CHICAGO,IL,60639,30,2,30-2,25,1475,Consumption on Premises - Incidental Activity,638,Consumption of Liquor on Premises,1357176,RENEW,,11/15/2020,01/11/2021,N,01/16/2021,01/15/2023,01/11/2021,01/12/2021,AAI,,,41.93098196,-87.779234714,"(41.93098195995931, -87.77923471427376)"
26893-20210116,2759368,11190,1,LA FLOR DE ACAPULCO INC,LA FLOR DE ACAPULCO INC,6021 W GRAND AVE,CHICAGO,IL,60639,36,7,36-7,25,1475,Consumption on Premises - Incidental Activity,638,Consumption of Liquor on Premises,26893,RENEW,,11/15/2020,01/11/2021,N,01/16/2021,01/15/2023,01/11/2021,01/12/2021,AAI,,,41.920619155,-87.776549215,"(41.92061915534823, -87.77654921488606)"
2631400-20210216,2766073,428006,2,DONER EXPRESS LLC,CAFE ISTANBUL,2014 W DIVISION ST 1,CHICAGO,IL,60622,1,5,1-5,14,1481,Caterer's Liquor License,630,Catering of Liquor To Events,2631400,RENEW,,12/15/2020,01/11/2021,N,02/16/2021,08/15/2022,01/11/2021,01/12/2021,AAI,,33,41.903289142,-87.677914096,"(41.903289141646646, -87.67791409556975)"
2631398-20210216,2766074,428006,2,DONER EXPRESS LLC,CAFE ISTANBUL,2014 W DIVISION ST 1,CHICAGO,IL,60622,1,5,1-5,14,1475,Consumption on Premises - Incidental Activity,638,Consumption of Liquor on Premises,2631398,RENEW,,12/15/2020,01/11/2021,N,02/16/2021,08/15/2022,01/11/2021,01/12/2021,AAI,,33,41.903289142,-87.677914096,"(41.903289141646646, -87.67791409556975)"
2658094-20210113,2658094,337571,25,KOVAL INC.,KOVAL DISTILLERY,4241 N RAVENSWOOD AVE 1,CHICAGO,IL,60613,47,39,47-39,19,1477,Outdoor Patio,784,Sale of Liquor Outdoors on Private Property,2658094,ISSUE,03/22/2019,12/23/2019,12/16/2019,Y,01/13/2021,01/15/2023,01/13/2021,01/13/2021,AAI,,31,41.959105443,-87.673762277,"(41.959105443227436, -87.67376227707415)"
2583496-20201216,2756251,402514,1,"5 RABANITOS, INC.",5 RABANITOS,1758 W 18TH ST 1ST,CHICAGO,IL,60608,25,19,25-19,12,1475,Consumption on Premises - Incidental Activity,638,Consumption of Liquor on Premises,2583496,RENEW,,10/15/2020,01/12/2021,N,12/16/2020,12/15/2021,01/12/2021,01/13/2021,AAI,,,41.85783609,-87.671006473,"(41.857836090111526, -87.67100647272235)"
289-20201016,2745770,29016,1,O C SANDERS,SANDERS LOUNGE,700 W 59TH ST 1ST,CHICAGO,IL,60621,20,53,20-53,7,1470,Tavern,829,Tavern - Consumption of Liquor on Premise,289,RENEW,,08/15/2020,12/01/2020,N,10/16/2020,10/15/2022,12/01/2020,01/13/2021,AAI,,,41.787176102,-87.642599018,"(41.7871761020304, -87.64259901750826)"
2749986-20210113,2749986,470041,1,KEDZIE WINE & SPIRITS INC.,ARMANETTI BEVERAGE DEPOT II,4616 N KEDZIE AVE 1,CHICAGO,IL,60625,33,27,33-27,17,1474,Package Goods,767 | 774,Retail Sales of General Merchandise and Non-Perishable Food | Retail Sales of Packaged Liquor,2749986,ISSUE,09/15/2020,09/15/2020,09/15/2020,N,01/13/2021,01/15/2023,01/13/2021,01/13/2021,AAI,,60,41.965230003,-87.708520871,"(41.96523000255944, -87.70852087128556)"
13059-20210216,2763008,6190,1,"MAHA, INC.",MIDORI JAPANESE RESTAURANT,3310 W BRYN MAWR AVE 1ST,CHICAGO,IL,60659,39,16,39-16,17,1475,Consumption on Premises - Incidental Activity,638,Consumption of Liquor on Premises,13059,RENEW,,12/15/2020,01/12/2021,N,02/16/2021,02/15/2023,01/12/2021,01/13/2021,AAI,,,41.983142324,-87.711787645,"(41.98314232407871, -87.71178764492834)"
56209-20200216,2705001,18277,1,"NICK & HOWARD, L.L.C.",UNDERGROUND CHICAGO,56 W ILLINOIS ST LL,CHICAGO,IL,60654,42,20,42-20,18,1050,Public Place of Amusement,743,Provides Onsite Amusement or Entertainment,56209,RENEW,,12/15/2019,01/31/2020,N,02/16/2020,02/15/2022,02/05/2020,02/10/2020,AAI,,,41.890935447,-87.630143101,"(41.890935446552625, -87.63014310123303)"
2688966-20210113,2688966,400591,5,"BITTER POPS, INC.",BITTER POPS,3357-3361 N LINCOLN AVE 1,CHICAGO,IL,60657,47,11,47-11,19,1474,Package Goods,774,Retail Sales of Packaged Liquor,2688966,ISSUE,08/20/2019,07/06/2020,07/02/2020,Y,01/13/2021,01/15/2023,01/13/2021,01/13/2021,AAI,,27,41.943033759,-87.670842283,"(41.9430337588967, -87.67084228253808)"
290-20201016,2745771,29016,1,O C SANDERS,SANDERS LOUNGE,700 W 59TH ST 1ST,CHICAGO,IL,60621,20,53,20-53,7,1472,Music and Dance,916,Music and Dance,290,RENEW,,08/15/2020,12/01/2020,N,10/16/2020,10/15/2022,12/01/2020,01/13/2021,AAI,,,41.787176102,-87.642599018,"(41.7871761020304, -87.64259901750826)"
56211-20200216,2704998,18277,1,"NICK & HOWARD, L.L.C.",UNDERGROUND CHICAGO,56 W ILLINOIS ST LL,CHICAGO,IL,60654,42,20,42-20,18,1471,Late Hour,785,"Sale of Liquor Until 4am, Monday - Saturday and 5am on Sunday",56211,RENEW,,12/15/2019,01/31/2020,N,02/16/2020,02/15/2022,01/31/2020,01/31/2020,AAI,,,41.890935447,-87.630143101,"(41.890935446552625, -87.63014310123303)"
2688965-20210113,2688965,400591,5,"BITTER POPS, INC.",BITTER POPS,3357-3361 N LINCOLN AVE 1,CHICAGO,IL,60657,47,11,47-11,19,1470,Tavern,829,Tavern - Consumption of Liquor on Premise,2688965,ISSUE,08/20/2019,07/06/2020,07/02/2020,Y,01/13/2021,01/15/2023,01/13/2021,01/13/2021,AAI,,27,41.943033759,-87.670842283,"(41.9430337588967, -87.67084228253808)"
2658092-20210113,2658092,337571,25,KOVAL INC.,KOVAL DISTILLERY,4241 N RAVENSWOOD AVE 1,CHICAGO,IL,60613,47,39,47-39,19,1475,Consumption on Premises - Incidental Activity,638,Consumption of Liquor on Premises,2658092,ISSUE,03/22/2019,12/23/2019,12/16/2019,Y,01/13/2021,01/15/2023,01/13/2021,01/13/2021,AAI,,31,41.959105443,-87.673762277,"(41.959105443227436, -87.67376227707415)"
56210-20200216,2704999,18277,1,"NICK & HOWARD, L.L.C.",UNDERGROUND CHICAGO,56 W ILLINOIS ST LL,CHICAGO,IL,60654,42,20,42-20,18,1470,Tavern,829,Tavern - Consumption of Liquor on Premise,56210,RENEW,,12/15/2019,01/31/2020,N,02/16/2020,02/15/2022,01/31/2020,01/31/2020,AAI,,,41.890935447,-87.630143101,"(41.890935446552625, -87.63014310123303)"
2564396-20201016,2748250,422730,1,JMRC INC.,LA MEJIKANA,1820 S ASHLAND AVE 1,CHICAGO,IL,60608,25,19,25-19,12,1475,Consumption on Premises - Incidental Activity,638,Consumption of Liquor on Premises,2564396,RENEW,,08/15/2020,09/15/2020,N,10/16/2020,10/15/2022,09/15/2020,01/21/2021,AAI,,,41.857117566,-87.666274325,"(41.85711756587768, -87.66627432464414)"
2718249-20210121,2718249,467062,1,"REZA ON CLARK, INC.",REZA'S RESTAURANT,5255-5259 N CLARK ST LL-2,CHICAGO,IL,60640,48,10,48-10,20,1475,Consumption on Premises - Incidental Activity,638,Consumption of Liquor on Premises,2718249,ISSUE,03/03/2020,06/10/2020,06/10/2020,N,01/21/2021,02/15/2023,01/21/2021,01/21/2021,AAI,,22,41.977842895,-87.6682074,"(41.97784289507301, -87.66820740032976)"
1542161-20200716,2730080,282055,1,"VALLES HOLDINGS, INC.",GEORGES TAP,9910 S COMMERCIAL AVE,CHICAGO,IL,60617,10,30,10-30,4,1470,Tavern,829,Tavern - Consumption of Liquor on Premise,1542161,RENEW,,05/15/2020,06/05/2020,N,07/16/2020,07/15/2022,06/05/2020,06/05/2020,AAI,,,41.715072948,-87.551114693,"(41.71507294801782, -87.5511146927825)"
1954412-20210116,2760874,340750,1,"MANOJ & SHILPA, INC.",A & R FOOD MART,5952 W GRAND AVE,CHICAGO,IL,60639,36,11,36-11,25,1474,Package Goods,774,Retail Sales of Packaged Liquor,1954412,RENEW,,11/15/2020,01/13/2021,N,01/16/2021,01/15/2023,01/13/2021,01/14/2021,AAI,,,41.920596458,-87.775192681,"(41.9205964582011, -87.77519268085403)"
2354845-20201116,2752042,387915,1,LOEWS CHICAGO OPERATING COMPANY LLC,THE LOEWS CHICAGO,455 N PARK DR 1-52,CHICAGO,IL,60611,42,54,42-54,18,1050,Public Place of Amusement,744,Provides Onsite Entertainment or Rentals,2354845,RENEW,,09/15/2020,01/14/2021,N,11/16/2020,11/15/2022,11/03/2020,11/04/2020,AAI,,,41.890219142,-87.619458663,"(41.89021914224843, -87.6194586634157)"
2314646-20201116,2752037,387915,1,LOEWS CHICAGO OPERATING COMPANY LLC,THE LOEWS CHICAGO,455 N PARK DR 1-52,CHICAGO,IL,60611,42,54,42-54,18,1475,Consumption on Premises - Incidental Activity,638,Consumption of Liquor on Premises,2314646,RENEW,,09/15/2020,01/14/2021,N,11/16/2020,11/15/2022,10/29/2020,10/30/2020,AAI,,,41.890219142,-87.619458663,"(41.89021914224843, -87.6194586634157)"
2314643-20201116,2752039,387915,1,LOEWS CHICAGO OPERATING COMPANY LLC,THE LOEWS CHICAGO,455 N PARK DR 1-52,CHICAGO,IL,60611,42,54,42-54,18,1477,Outdoor Patio,784,Sale of Liquor Outdoors on Private Property,2314643,RENEW,,09/15/2020,01/14/2021,N,11/16/2020,11/15/2022,10/29/2020,10/30/2020,AAI,,,41.890219142,-87.619458663,"(41.89021914224843, -87.6194586634157)"
2314644-20201116,2752035,387915,1,LOEWS CHICAGO OPERATING COMPANY LLC,THE LOEWS CHICAGO,455 N PARK DR 1-52,CHICAGO,IL,60611,42,54,42-54,18,1475,Consumption on Premises - Incidental Activity,638,Consumption of Liquor on Premises,2314644,RENEW,,09/15/2020,01/14/2021,N,11/16/2020,11/15/2022,10/29/2020,10/30/2020,AAI,,,41.890219142,-87.619458663,"(41.89021914224843, -87.6194586634157)"
17049-20210116,2759330,7005,1,"NOWAK'S FARMERS MARKET AND LIQUORS, INC.",NOWAK'S FARMERS MARKET & LIQ,5259 W FULLERTON AVE 1ST,CHICAGO,IL,60639,36,1,36-1,25,1474,Package Goods,774,Retail Sales of Packaged Liquor,17049,RENEW,,11/15/2020,01/13/2021,N,01/16/2021,01/15/2023,01/13/2021,01/14/2021,AAI,,,41.923965944,-87.758542716,"(41.92396594425517, -87.75854271564845)"
2712564-20210114,2712564,463243,1,GGC CHICAGO LLC,MRS. GU SKEWER HOT POT,2405-07 S WENTWORTH AVE,CHICAGO,IL,60616,25,6,25-6,9,1475,Consumption on Premises - Incidental Activity,638,Consumption of Liquor on Premises,2712564,ISSUE,01/22/2020,01/08/2021,02/18/2020,N,01/14/2021,01/15/2023,01/14/2021,01/14/2021,AAI,,,41.848992426,-87.631782136,"(41.848992426158325, -87.63178213569165)"
2314642-20201116,2752038,387915,1,LOEWS CHICAGO OPERATING COMPANY LLC,THE LOEWS CHICAGO,455 N PARK DR 1-52,CHICAGO,IL,60611,42,54,42-54,18,1475,Consumption on Premises - Incidental Activity,638,Consumption of Liquor on Premises,2314642,RENEW,,09/15/2020,01/14/2021,N,11/16/2020,11/15/2022,10/29/2020,10/30/2020,AAI,,,41.890219142,-87.619458663,"(41.89021914224843, -87.6194586634157)"
2314645-20201116,2752036,387915,1,LOEWS CHICAGO OPERATING COMPANY LLC,THE LOEWS CHICAGO,455 N PARK DR 1-52,CHICAGO,IL,60611,42,54,42-54,18,1475,Consumption on Premises - Incidental Activity,638,Consumption of Liquor on Premises,2314645,RENEW,,09/15/2020,01/14/2021,N,11/16/2020,11/15/2022,10/29/2020,10/30/2020,AAI,,,41.890219142,-87.619458663,"(41.89021914224843, -87.6194586634157)"
1145649-20201216,2755070,216137,1,BUY LOW LIQUORS INC.,CENTRAL BUY LOW LIQUOR,3360 W MONTROSE AVE,CHICAGO,IL,60618,33,33,33-33,17,1474,Package Goods,774,Retail Sales of Packaged Liquor,1145649,RENEW,,10/15/2020,11/19/2020,N,12/16/2020,12/15/2022,11/19/2020,11/20/2020,AAI,,60,41.961239671,-87.713076618,"(41.96123967064833, -87.7130766179954)"
2536490-20200316,2711761,417650,1,"FIRST WURST, LLC",DOG HAUS,2464-2466 N LINCOLN AVE 1,CHICAGO,IL,60614,43,56,43-56,19,1475,Consumption on Premises - Incidental Activity,638,Consumption of Liquor on Premises,2536490,RENEW,,01/15/2020,06/11/2020,N,03/16/2020,03/15/2022,06/11/2020,01/15/2021,AAI,,35,41.926744719,-87.65078998,"(41.92674471870681, -87.65078998020067)"
2745088-20210115,2745088,469285,1,"Uproar Hospitality, LLC",Uproar Food & Beverage,1252 N WELLS ST 1-2,CHICAGO,IL,60610,2,,2-,,1050,Public Place of Amusement,746,"Public Place of Amusement, Provides Entertainment, Room Rentals and Charges a Fee",2745088,ISSUE,08/12/2020,08/12/2020,08/12/2020,Y,01/15/2021,02/15/2023,01/15/2021,01/15/2021,AAI,,,41.905433008,-87.634680857,"(41.905433007908826, -87.63468085706485)"
2065039-20210216,2764586,357771,1,"BOTTLENECK 100, LLC",SOUTH BRANCH,100 S WACKER DR 1ST 140,CHICAGO,IL,60606,42,9,42-9,1,1475,Consumption on Premises - Incidental Activity,638,Consumption of Liquor on Premises,2065039,RENEW,,12/15/2020,01/14/2021,N,02/16/2021,02/15/2023,01/14/2021,01/15/2021,AAI,,,41.880557025,-87.637131776,"(41.8805570251432, -87.63713177610846)"
12323-20210116,2759313,6057,1,"VICKIE, INC.",VICKIE'S,4201 W FULLERTON AVE,CHICAGO,IL,60639,31,34,31-34,25,1470,Tavern,829,Tavern - Consumption of Liquor on Premise,12323,RENEW,,11/15/2020,01/14/2021,N,01/16/2021,01/15/2023,01/14/2021,01/15/2021,AAI,,,41.924315289,-87.731726016,"(41.92431528871619, -87.73172601594874)"
2073703-20210216,2764585,357771,1,"BOTTLENECK 100, LLC",SOUTH BRANCH,100 S WACKER DR 1ST 140,CHICAGO,IL,60606,42,9,42-9,1,1477,Outdoor Patio,784,Sale of Liquor Outdoors on Private Property,2073703,RENEW,,12/15/2020,01/14/2021,N,02/16/2021,02/15/2023,01/14/2021,01/15/2021,AAI,,,41.880557025,-87.637131776,"(41.8805570251432, -87.63713177610846)"
2341748-20210116,2761265,391776,1,"DANCEN GRILL RESTAURANT, INC.","DANCEN GRILL RESTAURANT, INC.",5114 N LINCOLN AVE,CHICAGO,IL,60625,40,36,40-36,20,1475,Consumption on Premises - Incidental Activity,638,Consumption of Liquor on Premises,2341748,RENEW,,11/15/2020,01/14/2021,N,01/16/2021,01/15/2023,01/14/2021,01/15/2021,AAI,,,41.974528737,-87.692339258,"(41.97452873707269, -87.69233925845519)"
1868392-20200916,2741463,322760,1,"MSG CHICAGO, LLC",CHICAGO THEATER,175 N STATE ST,CHICAGO,IL,60601,42,10,42-10,1,1050,Public Place of Amusement,743,Provides Onsite Amusement or Entertainment,1868392,RENEW,,07/15/2020,09/09/2020,N,09/16/2020,09/15/2022,12/08/2020,12/09/2020,AAI,,1,41.885237799,-87.627781834,"(41.885237799492714, -87.62778183447381)"
2488674-20200916,2739764,63801,7,CHICAGO THEATRE GROUP INC,THE GOODMAN THEATRE,"170 N DEARBORN ST 1,2, AND MEZZ",CHICAGO,IL,60601,42,9,42-9,1,1050,Public Place of Amusement,746,"Public Place of Amusement, Provides Entertainment, Room Rentals and Charges a Fee",2488674,RENEW,,07/15/2020,09/18/2020,N,09/16/2020,09/15/2022,12/08/2020,12/09/2020,AAI,,,,,
1868391-20200916,2741462,322760,1,"MSG CHICAGO, LLC",CHICAGO THEATER,175 N STATE ST,CHICAGO,IL,60601,42,10,42-10,1,1475,Consumption on Premises - Incidental Activity,638,Consumption of Liquor on Premises,1868391,RENEW,,07/15/2020,09/09/2020,N,09/16/2020,09/15/2022,07/30/2020,07/31/2020,AAI,,1,41.885237799,-87.627781834,"(41.885237799492714, -87.62778183447381)"
1948880-20210116,2760867,340167,1,"1412 WEST CHICAGO AVENUE, LLC",LUSH WINE & SPIRITS,1412 W CHICAGO AVE 1ST,CHICAGO,IL,60642,1,32,1-32,12,1474,Package Goods,774,Retail Sales of Packaged Liquor,1948880,RENEW,,11/15/2020,01/14/2021,N,01/16/2021,01/15/2023,01/14/2021,01/15/2021,AAI,,29,41.89625011,-87.662954107,"(41.89625011016584, -87.66295410715367)"
2014305-20210116,2760864,340167,1,"1412 WEST CHICAGO AVENUE, LLC",LUSH WINE & SPIRITS,1412 W CHICAGO AVE 1ST,CHICAGO,IL,60642,1,32,1-32,12,1481,Caterer's Liquor License,630,Catering of Liquor To Events,2014305,RENEW,,11/15/2020,01/14/2021,N,01/16/2021,01/15/2023,01/14/2021,01/15/2021,AAI,,29,41.89625011,-87.662954107,"(41.89625011016584, -87.66295410715367)"
2488675-20200916,2739763,63801,7,CHICAGO THEATRE GROUP INC,THE GOODMAN THEATRE,"170 N DEARBORN ST 1,2, AND MEZZ",CHICAGO,IL,60601,42,9,42-9,1,1475,Consumption on Premises - Incidental Activity,638,Consumption of Liquor on Premises,2488675,RENEW,,07/15/2020,09/18/2020,N,09/16/2020,09/15/2022,09/18/2020,09/21/2020,AAI,,,,,
2083390-20210116,2760866,340167,1,"1412 WEST CHICAGO AVENUE, LLC",LUSH WINE & SPIRITS,1412 W CHICAGO AVE 1ST,CHICAGO,IL,60642,1,32,1-32,12,1470,Tavern,829,Tavern - Consumption of Liquor on Premise,2083390,RENEW,,11/15/2020,01/14/2021,N,01/16/2021,01/15/2023,01/14/2021,01/15/2021,AAI,,29,41.89625011,-87.662954107,"(41.89625011016584, -87.66295410715367)"
2094105-20210216,2764588,357771,1,"BOTTLENECK 100, LLC",SOUTH BRANCH,100 S WACKER DR 1ST 140,CHICAGO,IL,60606,42,9,42-9,1,1477,Outdoor Patio,784,Sale of Liquor Outdoors on Private Property,2094105,RENEW,,12/15/2020,01/14/2021,N,02/16/2021,02/15/2023,01/14/2021,01/15/2021,AAI,,,41.880557025,-87.637131776,"(41.8805570251432, -87.63713177610846)"
2397276-20201016,2746585,306481,1,"SAAJ CAFE, INC.",TAXIM,1558 N MILWAUKEE AVE 1,CHICAGO,IL,60622,1,8,1-8,14,1477,Outdoor Patio,784,Sale of Liquor Outdoors on Private Property,2397276,RENEW,,08/15/2020,10/14/2020,N,10/16/2020,10/15/2022,10/14/2020,11/20/2020,AAI,,33,41.909738341,-87.676692655,"(41.90973834112386, -87.67669265473931)"
1847352-20201116,2751336,302203,2,"COALFIRE, INC.",COALFIRE,1321 W GRAND AVE 1,CHICAGO,IL,60642,1,18,1-18,12,1475,Consumption on Premises - Incidental Activity,638,Consumption of Liquor on Premises,1847352,RENEW,,09/15/2020,10/05/2020,N,11/16/2020,11/15/2022,10/05/2020,11/20/2020,AAI,,,41.890942316,-87.659856723,"(41.89094231646181, -87.65985672284124)"
1847530-20201016,2746588,306481,1,"SAAJ CAFE, INC.",TAXIM,1558 N MILWAUKEE AVE 1,CHICAGO,IL,60622,1,8,1-8,14,1475,Consumption on Premises - Incidental Activity,638,Consumption of Liquor on Premises,1847530,RENEW,,08/15/2020,10/14/2020,N,10/16/2020,10/15/2022,10/14/2020,11/20/2020,AAI,,33,41.909738341,-87.676692655,"(41.90973834112386, -87.67669265473931)"
2657990-20201120,2657990,457394,1,CHICAGO EATS SPORTS BAR LLC,CHICAGO EATS SPORTS BAR,5312 W CHICAGO AVE 1,CHICAGO,IL,60651,37,18,37-18,15,1481,Caterer's Liquor License,630,Catering of Liquor To Events,2657990,ISSUE,03/21/2019,02/25/2020,06/05/2019,Y,11/20/2020,10/15/2022,11/20/2020,11/20/2020,AAI,,,41.895017753,-87.758649042,"(41.8950177526945, -87.75864904199005)"
27288-20211016,2804660,63619,1,OLD TIME TAP INC.,OLD TIME TAP INC.,13501 S BRANDON AVE 1ST,CHICAGO,IL,60633,10,16,10-16,4,1470,Tavern,829,Tavern - Consumption of Liquor on Premise,27288,RENEW,,08/15/2021,09/15/2021,N,10/16/2021,10/15/2023,09/15/2021,09/16/2021,AAI,,,41.649950173,-87.545781839,"(41.64995017313985, -87.54578183873457)"
2458443-20211116,2811251,386886,2,GOLDEN TEARDROPS LLC,GOLDEN TEARDROPS & LONESOME ROSE,"2101-2103 N CALIFORNIA AVE 1ST, BSMT, & RFTP",CHICAGO,IL,60647,1,13,1-13,14,1477,Outdoor Patio,784,Sale of Liquor Outdoors on Private Property,2458443,RENEW,,09/15/2021,09/15/2021,N,11/16/2021,11/15/2023,09/15/2021,09/16/2021,AAI,,,,,
2269414-20211116,2811115,382152,1,THE QUEEN MARY LLC,THE QUEEN MARY,2125 W DIVISION ST 1,CHICAGO,IL,60622,2,12,2-12,12,1470,Tavern,829,Tavern - Consumption of Liquor on Premise,2269414,RENEW,,09/15/2021,09/15/2021,N,11/16/2021,11/15/2023,09/15/2021,09/16/2021,AAI,,33,41.903019956,-87.680727345,"(41.90301995592609, -87.6807273446013)"
2657989-20201120,2657989,457394,1,CHICAGO EATS SPORTS BAR LLC,CHICAGO EATS SPORTS BAR,5312 W CHICAGO AVE 1,CHICAGO,IL,60651,37,18,37-18,15,1477,Outdoor Patio,784,Sale of Liquor Outdoors on Private Property,2657989,ISSUE,03/21/2019,02/25/2020,06/05/2019,Y,11/20/2020,12/15/2022,11/20/2020,11/20/2020,AAI,,,41.895017753,-87.758649042,"(41.8950177526945, -87.75864904199005)"
2657987-20201120,2657987,457394,1,CHICAGO EATS SPORTS BAR LLC,CHICAGO EATS SPORTS BAR,5312 W CHICAGO AVE 1,CHICAGO,IL,60651,37,18,37-18,15,1475,Consumption on Premises - Incidental Activity,638,Consumption of Liquor on Premises,2657987,ISSUE,03/21/2019,02/25/2020,06/05/2019,Y,11/20/2020,10/15/2022,11/20/2020,11/20/2020,AAI,,,41.895017753,-87.758649042,"(41.8950177526945, -87.75864904199005)"
2049804-20210116,2760968,355732,1,"POST TIME CATERING, INC.",111TH STREET OTB,11203 S CORLISS AVE 1,CHICAGO,IL,60628,9,37,9-37,5,1477,Outdoor Patio,784,Sale of Liquor Outdoors on Private Property,2049804,RENEW,,11/15/2020,01/15/2021,N,01/16/2021,01/15/2023,01/15/2021,01/19/2021,AAI,,,41.690742007,-87.600677902,"(41.69074200662608, -87.60067790215122)"
7065-20200616,2723984,3742,1,HARTHILL CORPORATION,GUTHRIES TAVERN,1300 W ADDISON ST 1,CHICAGO,IL,60613,44,11,44-11,19,1470,Tavern,829,Tavern - Consumption of Liquor on Premise,7065,RENEW,,04/15/2020,06/11/2020,N,06/16/2020,06/15/2022,06/11/2020,06/11/2020,AAI,,,41.947217002,-87.661659581,"(41.94721700234395, -87.66165958148052)"
2589654-20201116,2752646,426457,1,EAGLE FOOD & LIQUOR MARKET INC.,EAGLE FOOD & LIQUOR MARKET INC,3004 E 100TH ST 1,CHICAGO,IL,60617,10,7,10-7,4,1474,Package Goods,774,Retail Sales of Packaged Liquor,2589654,RENEW,,09/15/2020,11/13/2020,N,11/16/2020,11/15/2022,11/13/2020,11/20/2020,AAI,,,41.713497843,-87.550733107,"(41.713497843474286, -87.55073310658338)"
1674-20210316,2767421,323,1,"RON OF JAPAN, LTD., A LIMITED PARTNERSHIP",RON OF JAPAN INC,230 E ONTARIO ST,CHICAGO,IL,60611,42,41,42-41,18,1475,Consumption on Premises - Incidental Activity,638,Consumption of Liquor on Premises,1674,RENEW,,01/15/2021,01/15/2021,N,03/16/2021,03/15/2023,01/15/2021,01/19/2021,AAI,,,41.893483677,-87.621882768,"(41.89348367731226, -87.62188276840526)"
48037-20201016,2745845,36746,1,"STINDLE, INC.",Jarvis Square Tavern,1502 W JARVIS AVE,CHICAGO,IL,60626,49,5,49-5,24,1470,Tavern,829,Tavern - Consumption of Liquor on Premise,48037,RENEW,,08/15/2020,10/12/2020,N,10/16/2020,10/15/2022,10/12/2020,10/22/2020,AAI,,,42.016155886,-87.668329252,"(42.016155885898776, -87.66832925191089)"
30949-20210116,2759381,14244,1,"ALCOIRIS, INC.","ALCOIRIS, INC.",4007 W ARMITAGE AVE 1ST,CHICAGO,IL,60639,35,13,35-13,25,1475,Consumption on Premises - Incidental Activity,638,Consumption of Liquor on Premises,30949,RENEW,,11/15/2020,01/18/2021,N,01/16/2021,01/15/2023,01/18/2021,01/19/2021,AAI,,,41.917051967,-87.726892736,"(41.917051966932796, -87.72689273615504)"
2137-20200616,2724452,24260,1,MARK WHITE SQUARE POST #6870 V.F.W. INC.,MARK WHITE SQUARE POST 6870,3152 S WALLACE ST 1ST,CHICAGO,IL,60616,11,42,11-42,9,1473,Not-For-Profit Club,639,Consumption of Liquor on Premises - Not for Profit,2137,RENEW,,04/15/2020,01/16/2021,N,06/16/2020,06/15/2022,01/16/2021,01/19/2021,AAI,,,41.836543761,-87.641521546,"(41.83654376132184, -87.64152154553862)"
1096-20210116,2758311,205,1,"ONE STOP FOOD & LIQUOR STORE, INC.",ONE STOP FOOD & LIQUOR STORE,4301-4323 S LAKE PARK AVE,CHICAGO,IL,60653,4,5,4-5,2,1474,Package Goods,774,Retail Sales of Packaged Liquor,1096,RENEW,,11/15/2020,01/15/2021,N,01/16/2021,01/15/2023,01/15/2021,01/19/2021,AAI,,,41.816865148,-87.598688844,"(41.816865148052045, -87.59868884416672)"
2569547-20200516,2722752,408044,7,"11 DINING, LLC",11 DINING,440 S LA SALLE ST 3RD,CHICAGO,IL,60605,4,49,4-49,1,1475,Consumption on Premises - Incidental Activity,638,Consumption of Liquor on Premises,2569547,RENEW,,03/15/2020,10/29/2020,N,05/16/2020,08/15/2022,10/29/2020,11/23/2020,AAI,,,41.87588847,-87.631884721,"(41.87588847004054, -87.63188472119873)"
2694642-20201123,2694642,463258,1,3XLLL SHEFFIELD LLC,KAPITAN,2142 N CLYBOURN AVE 1,CHICAGO,IL,60614,2,20,2-20,18,1475,Consumption on Premises - Incidental Activity,638,Consumption of Liquor on Premises,2694642,ISSUE,10/01/2019,10/23/2019,10/03/2019,Y,11/23/2020,12/15/2022,11/23/2020,11/23/2020,AAI,,,41.920080499,-87.662480169,"(41.920080499210265, -87.66248016891137)"
2293834-20200516,2721924,386117,1,FLYING SQUIRREL INDUSTRIES LLC,SLIPPERY SLOPE,2357 N MILWAUKEE AVE 1 & 2,CHICAGO,IL,60647,1,10,1-10,14,1050,Public Place of Amusement,744,Provides Onsite Entertainment or Rentals,2293834,RENEW,,03/15/2020,10/28/2020,N,05/16/2020,05/15/2022,10/28/2020,11/23/2020,AAI,,,41.924150306,-87.699150883,"(41.92415030562805, -87.69915088269197)"
21545-20201016,2745775,29288,1,"GYRENE, INC.",JIMMY'S ON CLARK,6973 N CLARK ST 1ST,CHICAGO,IL,60626,49,3,49-3,24,1470,Tavern,829,Tavern - Consumption of Liquor on Premise,21545,RENEW,,08/15/2020,10/14/2020,N,10/16/2020,10/15/2022,10/14/2020,11/23/2020,AAI,,24,42.008720542,-87.673750362,"(42.00872054229562, -87.67375036177943)"
2476557-20210116,2761472,407896,1,"NANDO'S OF HYDE PARK, LLC",NANDO'S PERI PERI,1447 E 53RD ST 1,CHICAGO,IL,60615,5,54,5-54,2,1475,Consumption on Premises - Incidental Activity,638,Consumption of Liquor on Premises,2476557,RENEW,,11/15/2020,11/20/2020,N,01/16/2021,01/15/2023,11/20/2020,11/23/2020,AAI,,61,41.799423505,-87.589964079,"(41.799423505424414, -87.58996407916824)"
2600975-20200816,2736982,408044,7,"11 DINING, LLC",11 DINING,440 S LA SALLE ST 3RD,CHICAGO,IL,60605,4,49,4-49,1,1477,Outdoor Patio,784,Sale of Liquor Outdoors on Private Property,2600975,RENEW,,06/15/2020,10/29/2020,N,08/16/2020,08/15/2022,10/29/2020,11/23/2020,AAI,,,41.87588847,-87.631884721,"(41.87588847004054, -87.63188472119873)"
2601227-20201116,2752670,428001,1,"H&I PINA, INC.",LA PALMA SUPERMERCADO,4173 S ARCHER AVE 1,CHICAGO,IL,60632,12,13,12-13,9,1474,Package Goods,774,Retail Sales of Packaged Liquor,2601227,RENEW,,09/15/2020,10/19/2020,N,11/16/2020,11/15/2022,10/19/2020,11/23/2020,AAI,,39,41.817579308,-87.698320586,"(41.81757930768816, -87.69832058630668)"
2349135-20201116,2750033,3204,2,"SHRIMP SHOP, INC.",PASTA D'ARTE,6305-6311 N MILWAUKEE AVE 1 AND BSMT,CHICAGO,IL,60646,39,51,39-51,16,1475,Consumption on Premises - Incidental Activity,638,Consumption of Liquor on Premises,2349135,RENEW,,09/15/2020,11/20/2020,N,11/16/2020,11/15/2022,11/20/2020,11/23/2020,AAI,,,41.995344034,-87.785796196,"(41.99534403364736, -87.78579619614099)"
2418113-20200316,2711460,400022,1,"ORIOLE, LLC",ORIOLE,661 W WALNUT ST,CHICAGO,IL,60661,42,1,42-1,12,1475,Consumption on Premises - Incidental Activity,638,Consumption of Liquor on Premises,2418113,RENEW,,01/15/2020,11/20/2020,N,03/16/2020,03/15/2022,11/20/2020,11/23/2020,AAI,,,41.886135369,-87.645175064,"(41.886135368620835, -87.6451750641585)"
2293833-20200516,2721925,386117,1,FLYING SQUIRREL INDUSTRIES LLC,SLIPPERY SLOPE,2357 N MILWAUKEE AVE 1 & 2,CHICAGO,IL,60647,1,10,1-10,14,1470,Tavern,829,Tavern - Consumption of Liquor on Premise,2293833,RENEW,,03/15/2020,10/28/2020,N,05/16/2020,05/15/2022,10/28/2020,11/23/2020,AAI,,,41.924150306,-87.699150883,"(41.92415030562805, -87.69915088269197)"
1694910-20201216,2755383,302792,1,SACA INCORPORATED,LIZARD'S LIQUID LOUNGE,3058 W IRVING PARK RD 1,CHICAGO,IL,60618,33,11,33-11,17,1470,Tavern,829,Tavern - Consumption of Liquor on Premise,1694910,RENEW,,10/15/2020,11/21/2020,N,12/16/2020,12/15/2022,11/21/2020,11/23/2020,AAI,,60,41.95404564,-87.705514293,"(41.9540456395967, -87.70551429267886)"
2595328-20201016,2748418,427156,1,MR BEEF & PIZZA LLC,MR BEEF ON HARLEM,3917 N HARLEM AVE 1,CHICAGO,IL,60634,38,3,38-3,16,1475,Consumption on Premises - Incidental Activity,638,Consumption of Liquor on Premises,2595328,RENEW,,08/15/2020,11/23/2020,N,10/16/2020,10/15/2022,11/23/2020,11/24/2020,AAI,,,41.951274669,-87.807066382,"(41.951274669402395, -87.80706638213873)"
2718705-20201124,2718705,467340,1,4114 N KEDZIE RESTAURANT LLC,EL ALEBRIJE,4114 N KEDZIE AVE LL+1,CHICAGO,IL,60618,33,17,33-17,17,1475,Consumption on Premises - Incidental Activity,638,Consumption of Liquor on Premises,2718705,ISSUE,03/11/2020,04/03/2020,04/02/2020,Y,11/24/2020,12/15/2022,11/24/2020,11/24/2020,AAI,,60,41.956193397,-87.708230325,"(41.956193396983295, -87.70823032541526)"
1245928-20201216,2755140,246924,1,SUPAROSSA ON WESTERN INC.,PETE'S PIZZA,3737 N WESTERN AVE,CHICAGO,IL,60618,47,51,47-51,19,1475,Consumption on Premises - Incidental Activity,638,Consumption of Liquor on Premises,1245928,RENEW,,10/15/2020,11/23/2020,N,12/16/2020,12/15/2022,11/23/2020,11/24/2020,AAI,,38,41.949664551,-87.688192141,"(41.94966455107424, -87.68819214082336)"
2600886-20201216,2756681,427865,1,CLARK CONVENIENCE LLC,7-ELEVEN 37760A,3519 N CLARK ST 1 SPACE C101,CHICAGO,IL,60657,44,38,44-38,19,1474,Package Goods,774,Retail Sales of Packaged Liquor,2600886,RENEW,,10/15/2020,11/23/2020,N,12/16/2020,12/15/2022,11/23/2020,11/24/2020,AAI,,17,41.946280811,-87.655603128,"(41.94628081101039, -87.65560312808297)"
1543439-20201216,2755142,246924,1,SUPAROSSA ON WESTERN INC.,PETE'S PIZZA,3737 N WESTERN AVE,CHICAGO,IL,60618,47,51,47-51,19,1481,Caterer's Liquor License,630,Catering of Liquor To Events,1543439,RENEW,,10/15/2020,11/23/2020,N,12/16/2020,12/15/2022,11/23/2020,11/24/2020,AAI,,38,41.949664551,-87.688192141,"(41.94966455107424, -87.68819214082336)"
9276-20200816,2733857,26059,1,"TREVINO'S LIQUORS, INC.",TREVINO'S LIQUORS INC,4125 W 31ST ST  1ST F,CHICAGO,IL,60623,22,16,22-16,10,1470,Tavern,829,Tavern - Consumption of Liquor on Premise,9276,RENEW,,06/15/2020,07/16/2020,N,08/16/2020,08/15/2022,07/16/2020,11/24/2020,AAI,,,41.836730827,-87.727930866,"(41.83673082682839, -87.72793086609656)"
2749482-20201124,2749482,469761,1,Dinner And A Movie LLC,Dinner And A Movie,2500 N ASHLAND AVE 1 1,CHICAGO,IL,60614,32,,32-,,1475,Consumption on Premises - Incidental Activity,638,Consumption of Liquor on Premises,2749482,ISSUE,08/31/2020,08/31/2020,08/31/2020,N,11/24/2020,12/15/2022,11/24/2020,11/24/2020,AAI,,,41.927051362,-87.668359476,"(41.92705136177427, -87.66835947589291)"
15954-20201216,2754742,27926,1,ERRO INC,MONTROSE SALOON,2933 W MONTROSE AVE 1 #,CHICAGO,IL,60618,33,23,33-23,17,1477,Outdoor Patio,784,Sale of Liquor Outdoors on Private Property,15954,RENEW,,10/15/2020,11/23/2020,N,12/16/2020,12/15/2022,11/23/2020,11/25/2020,AAI,,60,41.961116939,-87.702274158,"(41.961116939451195, -87.70227415826348)"
2569979-20201216,2755425,311660,1,DANIEL GROCERY INC.,DANIEL GROCERY,3101 W IRVING PARK RD 1 F,CHICAGO,IL,60618,33,6,33-6,17,1474,Package Goods,774,Retail Sales of Packaged Liquor,2569979,RENEW,,10/15/2020,11/24/2020,N,12/16/2020,12/15/2022,11/24/2020,11/25/2020,AAI,,60,41.953825421,-87.705634137,"(41.95382542137118, -87.70563413726975)"
15953-20201216,2754743,27926,1,ERRO INC,MONTROSE SALOON,2933 W MONTROSE AVE 1 #,CHICAGO,IL,60618,33,23,33-23,17,1472,Music and Dance,916,Music and Dance,15953,RENEW,,10/15/2020,11/23/2020,N,12/16/2020,12/15/2022,11/23/2020,11/25/2020,AAI,,60,41.961116939,-87.702274158,"(41.961116939451195, -87.70227415826348)"
2278095-20210116,2761230,383600,1,TAO ENTERTAINMENT INC.,COMMUNITY,4038 N MILWAUKEE AVE 1ST,CHICAGO,IL,60641,45,31,45-31,16,1475,Consumption on Premises - Incidental Activity,638,Consumption of Liquor on Premises,2278095,RENEW,,11/15/2020,11/24/2020,N,01/16/2021,01/15/2023,11/24/2020,11/25/2020,AAI,,28,41.954070512,-87.748631629,"(41.95407051177266, -87.74863162872255)"
63180-20200916,2739693,62544,20,HYATT CORPORATION,HYATT REGENCY MCCORMICK PLACE HOTEL,2233 S DR MARTIN LUTHER KING JR DR,CHICAGO,IL,60616,4,6,4-6,1,1477,Outdoor Patio,784,Sale of Liquor Outdoors on Private Property,63180,RENEW,,07/15/2020,10/02/2020,N,09/16/2020,09/15/2022,10/02/2020,10/05/2020,AAI,,,41.852075574,-87.618850804,"(41.852075574499366, -87.61885080391755)"
2355074-20210116,2761273,393286,1,P & J ENTERPRISES LLC,LIQUOR PARK,1937 W NORTH AVE,CHICAGO,IL,60622,1,8,1-8,14,1474,Package Goods,774,Retail Sales of Packaged Liquor,2355074,RENEW,,11/15/2020,11/24/2020,N,01/16/2021,01/15/2023,11/24/2020,11/25/2020,AAI,,33,41.910391188,-87.676572539,"(41.91039118774778, -87.67657253927491)"
2589607-20201116,2752276,402499,1,"BRYANNA'S RESTAURANT, INC.",BRYANNA'S RESTAURANT,5695 N LINCOLN AVE 1ST,CHICAGO,IL,60659,40,2,40-2,20,1475,Consumption on Premises - Incidental Activity,638,Consumption of Liquor on Premises,2589607,RENEW,,09/15/2020,09/24/2020,N,11/16/2020,12/15/2021,09/24/2020,11/25/2020,AAI,,,41.985010876,-87.69808433,"(41.98501087627449, -87.69808432957298)"
42525-20210116,2759406,16204,1,FAMILY PANTRY INC,OPEN PANTRY,10657 S PULASKI RD 1ST,CHICAGO,IL,60655,19,16,19-16,22,1474,Package Goods,774,Retail Sales of Packaged Liquor,42525,RENEW,,11/15/2020,11/24/2020,N,01/16/2021,01/15/2023,11/24/2020,11/25/2020,AAI,,,41.698675241,-87.720494855,"(41.69867524086993, -87.72049485543255)"
63177-20200916,2739692,62544,20,HYATT CORPORATION,HYATT REGENCY MCCORMICK PLACE HOTEL,2233 S DR MARTIN LUTHER KING JR DR,CHICAGO,IL,60616,4,6,4-6,1,1475,Consumption on Premises - Incidental Activity,638,Consumption of Liquor on Premises,63177,RENEW,,07/15/2020,10/02/2020,N,09/16/2020,09/15/2022,10/02/2020,10/05/2020,AAI,,,41.852075574,-87.618850804,"(41.852075574499366, -87.61885080391755)"
37300-20201116,2750508,33368,1,UKRAINIAN AMERICAN CLUB,UKRAINIAN AMERICAN CLUB,2234 W CHICAGO AVE 1ST,CHICAGO,IL,60622,2,6,2-6,12,1473,Not-For-Profit Club,639,Consumption of Liquor on Premises - Not for Profit,37300,RENEW,,09/15/2020,11/10/2020,N,11/16/2020,11/15/2022,11/10/2020,11/25/2020,AAI,,29,41.895912422,-87.683366059,"(41.89591242187647, -87.68336605865775)"
2354625-20200816,2735657,348479,2,B & B MADISON ENTERTAIMENT CORP.,BRICKS NIGHT CLUB,4422 W MADISON ST 1,CHICAGO,IL,60624,28,33,28-33,11,1050,Public Place of Amusement,744,Provides Onsite Entertainment or Rentals,2354625,RENEW,,06/15/2020,08/11/2020,N,08/16/2020,08/15/2022,11/25/2020,11/25/2020,AAI,,,41.880709192,-87.736437176,"(41.880709192327906, -87.73643717633821)"
63187-20200916,2739697,62544,20,HYATT CORPORATION,HYATT REGENCY MCCORMICK PLACE HOTEL,2233 S DR MARTIN LUTHER KING JR DR,CHICAGO,IL,60616,4,6,4-6,1,1474,Package Goods,774,Retail Sales of Packaged Liquor,63187,RENEW,,07/15/2020,10/02/2020,N,09/16/2020,09/15/2022,10/02/2020,10/05/2020,AAI,,,41.852075574,-87.618850804,"(41.852075574499366, -87.61885080391755)"
2263792-20200916,2739699,62544,20,HYATT CORPORATION,HYATT REGENCY MCCORMICK PLACE HOTEL,2233 S DR MARTIN LUTHER KING JR DR,CHICAGO,IL,60616,4,6,4-6,1,1481,Caterer's Liquor License,630,Catering of Liquor To Events,2263792,RENEW,,07/15/2020,10/02/2020,N,09/16/2020,09/15/2022,10/02/2020,10/05/2020,AAI,,,41.852075574,-87.618850804,"(41.852075574499366, -87.61885080391755)"
15952-20201216,2754741,27926,1,ERRO INC,MONTROSE SALOON,2933 W MONTROSE AVE 1 #,CHICAGO,IL,60618,33,23,33-23,17,1470,Tavern,829,Tavern - Consumption of Liquor on Premise,15952,RENEW,,10/15/2020,11/23/2020,N,12/16/2020,12/15/2022,11/23/2020,11/25/2020,AAI,,60,41.961116939,-87.702274158,"(41.961116939451195, -87.70227415826348)"
1675763-20201116,2751322,299661,1,"BRAVO TAPAS & LOUNGE, INC.",THE FIFTY / 50,2047 W DIVISION ST,CHICAGO,IL,60622,1,3,1-3,12,1475,Consumption on Premises - Incidental Activity,638,Consumption of Liquor on Premises,1675763,RENEW,,09/15/2020,11/24/2020,N,11/16/2020,11/15/2022,11/24/2020,11/25/2020,AAI,,33,41.903046998,-87.679119327,"(41.90304699799323, -87.67911932717314)"
2501349-20201116,2752342,407603,1,905 WEST RANDOLPH LLC,THE DARLING,901-905 W RANDOLPH ST 1-2,CHICAGO,IL,60607,27,45,27-45,12,1050,Public Place of Amusement,746,"Public Place of Amusement, Provides Entertainment, Room Rentals and Charges a Fee",2501349,RENEW,,09/15/2020,10/30/2020,N,11/16/2020,11/15/2022,11/24/2020,11/25/2020,AAI,,,41.884256704,-87.649826703,"(41.88425670381661, -87.64982670264364)"
2754198-20201125,2754198,470779,1,Letter Wall LLC,Ada Street,1664 N ADA ST 1ST,CHICAGO,IL,60642,2,,2-,,1475,Consumption on Premises - Incidental Activity,638,Consumption of Liquor on Premises,2754198,ISSUE,10/15/2020,10/15/2020,10/15/2020,N,11/25/2020,12/15/2022,11/25/2020,11/25/2020,AAI,,,41.912568081,-87.662167249,"(41.91256808104945, -87.66216724918101)"
63181-20200916,2739691,62544,20,HYATT CORPORATION,HYATT REGENCY MCCORMICK PLACE HOTEL,2233 S DR MARTIN LUTHER KING JR DR,CHICAGO,IL,60616,4,6,4-6,1,1475,Consumption on Premises - Incidental Activity,638,Consumption of Liquor on Premises,63181,RENEW,,07/15/2020,10/02/2020,N,09/16/2020,09/15/2022,10/02/2020,10/05/2020,AAI,,,41.852075574,-87.618850804,"(41.852075574499366, -87.61885080391755)"
2397593-20201216,2755672,346147,1,ZERO DEGREES KARAOKE BAR LLC,ZERO DEGREES KARAOKE BAR LLC,445-453 W 24TH ST 2ND 1,CHICAGO,IL,60616,11,18,11-18,9,1050,Public Place of Amusement,744,Provides Onsite Entertainment or Rentals,2397593,RENEW,,10/15/2020,11/05/2020,N,12/16/2020,12/15/2022,11/25/2020,11/27/2020,AAI,,,41.848958266,-87.638514086,"(41.848958266062155, -87.63851408560235)"
2341765-20201216,2756025,391785,1,"KAYSTAR, INC.",DOLO GARDEN RESTAURANT & BAR,2222-2224 S ARCHER AVE,CHICAGO,IL,60616,25,18,25-18,9,1475,Consumption on Premises - Incidental Activity,638,Consumption of Liquor on Premises,2341765,RENEW,,10/15/2020,11/25/2020,N,12/16/2020,12/15/2022,11/25/2020,11/27/2020,AAI,,,41.852526187,-87.635783698,"(41.85252618682806, -87.63578369845573)"
28025-20201216,2754541,11429,1,CHICAGO FOOD CORPORATION,JOONG BOO MARKET,3333 N KIMBALL AVE,CHICAGO,IL,60618,35,24,35-24,17,1474,Package Goods,774,Retail Sales of Packaged Liquor,28025,RENEW,,10/15/2020,11/06/2020,N,12/16/2020,12/15/2022,11/06/2020,11/30/2020,AAI,,,41.942153586,-87.712446018,"(41.94215358561294, -87.71244601758664)"
2609091-20201216,2756688,428583,1,"PARK'S KITCHEN, CO.",OMAKASE YUME,651 W WASHINGTON BLVD 1 101,CHICAGO,IL,60661,42,21,42-21,1,1475,Consumption on Premises - Incidental Activity,638,Consumption of Liquor on Premises,2609091,RENEW,,10/15/2020,11/27/2020,N,12/16/2020,07/15/2022,11/27/2020,11/30/2020,AAI,,,41.883052887,-87.644688604,"(41.883052886559646, -87.64468860442474)"
2476548-20201216,2756310,407892,1,LAKE EFFECT BREWING COMPANY LLC,LAKE EFFECT BREWING COMPANY,4727 W MONTROSE AVE 1ST,CHICAGO,IL,60641,45,12,45-12,17,1474,Package Goods,774,Retail Sales of Packaged Liquor,2476548,RENEW,,10/15/2020,11/30/2020,N,12/16/2020,12/15/2022,11/30/2020,12/01/2020,AAI,,,41.960628146,-87.74624647,"(41.96062814618813, -87.74624647022029)"
2443284-20201116,2752280,403501,1,"WINTER'S JAZZ CLUB, LLC",WINTER'S JAZZ CLUB,411 E ILLINOIS ST  50,CHICAGO,IL,60611,42,31,42-31,18,1050,Public Place of Amusement,744,Provides Onsite Entertainment or Rentals,2443284,RENEW,,09/15/2020,11/30/2020,N,11/16/2020,11/15/2022,11/30/2020,12/01/2020,AAI,,,41.89095012,-87.61718975,"(41.89095012024265, -87.61718975017543)"
24597-20201016,2745504,9936,1,"CITY-LIFE, LTD.","CITY-LIFE, LTD.",712 E 83RD ST 1,CHICAGO,IL,60619,6,59,6-59,6,1475,Consumption on Premises - Incidental Activity,638,Consumption of Liquor on Premises,24597,RENEW,,08/15/2020,09/11/2020,N,10/16/2020,10/15/2022,09/11/2020,12/01/2020,AAI,,,41.744044803,-87.606889988,"(41.74404480254745, -87.60688998764581)"
2177758-20201016,2745505,9936,1,"CITY-LIFE, LTD.","CITY-LIFE, LTD.",712 E 83RD ST 1,CHICAGO,IL,60619,6,59,6-59,6,1050,Public Place of Amusement,743,Provides Onsite Amusement or Entertainment,2177758,RENEW,,08/15/2020,09/11/2020,N,10/16/2020,10/15/2022,10/07/2020,12/01/2020,AAI,,,41.744044803,-87.606889988,"(41.74404480254745, -87.60688998764581)"
1475884-20200616,2725492,272914,1,TOBACCO ROAD INCORPORATED,HAROLD WASHINGTON CULTURAL CENTER,4701 S DR MARTIN LUTHER KING JR DR,CHICAGO,IL,60615,3,31,3-31,2,1050,Public Place of Amusement,743,Provides Onsite Amusement or Entertainment,1475884,RENEW,,04/15/2020,06/15/2020,N,06/16/2020,06/15/2022,12/01/2020,12/01/2020,AAI,,56,41.809295204,-87.616439669,"(41.80929520397561, -87.61643966919897)"
2647827-20201201,2647827,456591,1,3018 KMN LLC,LOGAN SQUARE LIQUOR,3018 N MILWAUKEE AVE 1,CHICAGO,IL,60618,30,24,30-24,25,1474,Package Goods,774,Retail Sales of Packaged Liquor,2647827,ISSUE,02/20/2019,03/27/2019,02/26/2019,Y,12/01/2020,12/15/2022,12/01/2020,12/01/2020,AAI,,,41.935988659,-87.718982313,"(41.93598865891675, -87.71898231267689)"
2443282-20201116,2752281,403501,1,"WINTER'S JAZZ CLUB, LLC",WINTER'S JAZZ CLUB,411 E ILLINOIS ST  50,CHICAGO,IL,60611,42,31,42-31,18,1470,Tavern,829,Tavern - Consumption of Liquor on Premise,2443282,RENEW,,09/15/2020,11/30/2020,N,11/16/2020,11/15/2022,11/30/2020,12/01/2020,AAI,,,41.89095012,-87.61718975,"(41.89095012024265, -87.61718975017543)"
2098980-20201116,2751813,358343,1,SIMMONS ENTERTAINMENT AND MARKETING LLC,SOCIETY 2201,2201 W WALNUT ST 1ST,CHICAGO,IL,60612,27,27,27-27,12,1470,Tavern,829,Tavern - Consumption of Liquor on Premise,2098980,RENEW,,09/15/2020,11/17/2020,N,11/16/2020,11/15/2022,11/17/2020,12/01/2020,AAI,,,41.885671642,-87.681772233,"(41.88567164152838, -87.68177223280703)"
2501511-20201216,2756509,411963,1,PINEAPPLE RESTAURANT GROUP LLC,ATWOOD,1 W WASHINGTON ST 1,CHICAGO,IL,60602,42,9,42-9,1,1475,Consumption on Premises - Incidental Activity,638,Consumption of Liquor on Premises,2501511,RENEW,,10/15/2020,11/30/2020,N,12/16/2020,12/15/2022,11/30/2020,12/01/2020,AAI,,1,41.883108627,-87.627948771,"(41.883108627266935, -87.62794877080378)"
34586-20210116,2760308,89256,1,ALLIANCE OF POLISH CLUBS IN THE UNITED STATES OF AMERICA,ALLIANCE OF POLISH CLUBS IN THE UNITED STATES OFAMERICA,5835 W DIVERSEY AVE 1ST,CHICAGO,IL,60639,30,10,30-10,25,1473,Not-For-Profit Club,639,Consumption of Liquor on Premises - Not for Profit,34586,RENEW,,11/15/2020,11/30/2020,N,01/16/2021,01/15/2023,11/30/2020,12/01/2020,AAI,,,41.931079333,-87.772535475,"(41.93107933281035, -87.7725354748207)"
2353877-20201216,2756034,392848,1,64 JOGNI INC,BLANZ PANTRY,4632 N KEDZIE AVE 1,CHICAGO,IL,60625,33,27,33-27,17,1474,Package Goods,774,Retail Sales of Packaged Liquor,2353877,RENEW,,10/15/2020,12/01/2020,N,12/16/2020,12/15/2022,12/01/2020,12/02/2020,AAI,,60,41.965676246,-87.70853612,"(41.96567624582396, -87.708536119944)"
31967-20201116,2750232,14446,1,EMPTY BOTTLE INC,EMPTY BOTTLE INC,1035 N WESTERN AVE 1ST,CHICAGO,IL,60622,1,44,1-44,12,1050,Public Place of Amusement,743,Provides Onsite Amusement or Entertainment,31967,RENEW,,09/15/2020,11/17/2020,N,11/16/2020,11/15/2022,12/01/2020,12/02/2020,AAI,,,41.900402169,-87.686814388,"(41.90040216893255, -87.68681438778759)"
2594811-20201216,2756256,403031,1,"CREATE YOUR SPACE STUDIO, LLC","CREATE YOUR SPACE STUDIO, LLC",937 N WESTERN AVE 1ST,CHICAGO,IL,60622,1,26,1-26,12,1050,Public Place of Amusement,746,"Public Place of Amusement, Provides Entertainment, Room Rentals and Charges a Fee",2594811,RENEW,,10/15/2020,11/25/2020,N,12/16/2020,12/15/2021,12/01/2020,12/02/2020,AAI,,,41.898643836,-87.686770717,"(41.89864383612294, -87.68677071674128)"
2141165-20200516,2721577,369847,1,"THE WINE RACK, INC.",1340 BEER WINE SPIRITS,"1340 W MADISON ST BSMT, 1ST FL, MEZZ",CHICAGO,IL,60607,27,7,27-7,12,1474,Package Goods,774,Retail Sales of Packaged Liquor,2141165,RENEW,,03/15/2020,04/23/2020,N,05/16/2020,05/15/2022,04/23/2020,04/24/2020,AAI,,,,,
2523667-20200216,2705855,296649,2,TOP CHACH LLC,LIQUOR BOX,"873 N ORLEANS ST BSMT,1, 2, & MEZZ",CHICAGO,IL,60610,27,28,27-28,18,1471,Late Hour,785,"Sale of Liquor Until 4am, Monday - Saturday and 5am on Sunday",2523667,RENEW,,12/15/2019,02/13/2020,N,02/16/2020,02/15/2022,02/13/2020,02/13/2020,AAI,,,,,
31221-20201016,2745534,14297,1,ANAR INC,FOOD TOWN,935 E 79TH ST 1ST,CHICAGO,IL,60619,8,43,8-43,6,1474,Package Goods,774,Retail Sales of Packaged Liquor,31221,RENEW,,08/15/2020,09/09/2020,N,10/16/2020,10/15/2022,09/09/2020,09/22/2020,AAI,,51,41.751217934,-87.60140141,"(41.75121793394575, -87.60140141021087)"
2142354-20200916,2740976,306327,1,ECD-GREAT STREET LLC,THE WIT,201 N STATE ST 1-27,CHICAGO,IL,60601,42,9,42-9,1,1477,Outdoor Patio,784,Sale of Liquor Outdoors on Private Property,2142354,RENEW,,07/15/2020,10/07/2020,N,09/16/2020,09/15/2022,10/07/2020,10/08/2020,AAI,,1,41.885778195,-87.627793737,"(41.88577819486805, -87.62779373655565)"
2550838-20200416,2716975,420348,1,O'DADDY WRIGLEY LLC,SMOKE DADDY,3636 N CLARK ST 1 & 2,CHICAGO,IL,60613,44,50,44-50,19,1050,Public Place of Amusement,746,"Public Place of Amusement, Provides Entertainment, Room Rentals and Charges a Fee",2550838,RENEW,,02/15/2020,05/19/2020,N,04/16/2020,04/15/2022,05/19/2020,05/22/2020,AAI,,17,41.948117852,-87.65742192,"(41.94811785164419, -87.65742192017119)"
1916162-20201016,2745279,1896,79,"HOST INTERNATIONAL, INC.",TUSCANY CAFE,11601 W TOUHY AVE,CHICAGO,IL,60666,41,27,41-27,16,1475,Consumption on Premises - Incidental Activity,638,Consumption of Liquor on Premises,1916162,RENEW,,08/15/2020,10/13/2020,N,10/16/2020,10/15/2022,10/13/2020,11/03/2020,AAI,,,42.008536401,-87.914428439,"(42.008536400868735, -87.91442843927047)"
2397841-20200416,2716671,398072,1,LOGAN SQUARE TAVERN LLC,SPILT MILK,2758 W FULLERTON AVE 1,CHICAGO,IL,60647,1,24,1-24,14,1470,Tavern,829,Tavern - Consumption of Liquor on Premise,2397841,RENEW,,02/15/2020,04/14/2020,N,04/16/2020,04/15/2022,04/14/2020,04/15/2020,AAI,,,41.924917667,-87.697353621,"(41.92491766672106, -87.69735362055471)"
35340-20200316,2710037,63973,1,RZESZOWSKA INC,RZESZOWSKA INC,2518 N LARAMIE AVE 1ST,CHICAGO,IL,60639,31,48,31-48,25,1470,Tavern,829,Tavern - Consumption of Liquor on Premise,35340,RENEW,,01/15/2020,03/10/2020,N,03/16/2020,03/15/2022,03/10/2020,03/11/2020,AAI,,,41.926618786,-87.756385193,"(41.926618785903365, -87.75638519273251)"
2601546-20210116,2761710,428095,1,SPIRITS BEVERAGE DEPOT LLC,SPIRITS BEVERAGE DEPOT,6601 S HALSTED ST 1,CHICAGO,IL,60621,6,28,6-28,7,1474,Package Goods,767 | 774,Retail Sales of General Merchandise and Non-Perishable Food | Retail Sales of Packaged Liquor,2601546,RENEW,,11/15/2020,01/15/2021,N,01/16/2021,01/15/2023,01/15/2021,01/19/2021,AAI,,,41.774252149,-87.64449655,"(41.77425214886086, -87.64449654993336)"
1042379-20201116,2750861,201658,1,MITCHELL M. SECHMAN,J & M TAP,957 N LEAVITT ST 1ST,CHICAGO,IL,60622,2,1,2-1,12,1470,Tavern,829,Tavern - Consumption of Liquor on Premise,1042379,RENEW,,09/15/2020,11/10/2020,N,11/16/2020,11/15/2022,11/10/2020,11/12/2020,AAI,,,41.899359657,-87.681896503,"(41.89935965685184, -87.68189650291991)"
2133636-20200316,2711030,368477,1,BOTTLENECK WELLS LLC,OLD TOWN POUR HOUSE,1417-1419 N WELLS ST BSMT/1/2,CHICAGO,IL,60610,27,54,27-54,18,1475,Consumption on Premises - Incidental Activity,638,Consumption of Liquor on Premises,2133636,RENEW,,01/15/2020,02/14/2020,N,03/16/2020,03/15/2022,02/14/2020,02/18/2020,AAI,,48,41.908190475,-87.634472296,"(41.90819047476291, -87.63447229558089)"
2600948-20200319,2600948,427752,1,4628 VARAHI INC.,CITY LIMITS,4628 N CUMBERLAND AVE 1 A,CHICAGO,IL,60656,38,12,38-12,16,1475,Consumption on Premises - Incidental Activity,638,Consumption of Liquor on Premises,2600948,ISSUE,05/23/2018,07/06/2018,06/07/2018,Y,03/19/2020,04/15/2022,03/19/2020,03/19/2020,AAI,,,41.963890531,-87.836838471,"(41.96389053134971, -87.83683847050548)"
2517304-20200304,2517304,391703,1,STK CHICAGO LLC,STK CHICAGO,9 W KINZIE ST 1ST,CHICAGO,IL,60654,42,27,42-27,18,1481,Caterer's Liquor License,630,Catering of Liquor To Events,2517304,ISSUE,03/02/2017,01/21/2020,01/21/2020,N,03/04/2020,03/15/2022,03/04/2020,03/04/2020,AAI,,,41.889137271,-87.62843006,"(41.88913727056584, -87.62843005984261)"
2487440-20191216,2697535,409135,1,ARISTA HOLDINGS INC.,STELIOS' BOTTLES & BITES,19 S MORGAN ST 1,CHICAGO,IL,60607,25,6,25-6,12,1474,Package Goods,774,Retail Sales of Packaged Liquor,2487440,RENEW,,10/15/2019,12/10/2019,N,12/16/2019,12/15/2021,12/10/2019,12/10/2019,AAI,,,41.881102464,-87.651865017,"(41.881102463653505, -87.65186501694456)"
25702-20210916,2798408,30354,1,SAAR INC,ST. PAULI'S BAR,5109 N LINCOLN AVE  1,CHICAGO,IL,60625,40,14,40-14,20,1470,Tavern,829,Tavern - Consumption of Liquor on Premise,25702,RENEW,,07/15/2021,09/14/2021,N,09/16/2021,09/15/2023,09/14/2021,09/15/2021,AAI,,,41.974369465,-87.691998213,"(41.974369465401125, -87.69199821258272)"
2428956-20201016,2747653,401763,1,"6-M HOSPITALITY GROUP, LLC",2 TWENTY 2 TAVERN,222 S WABASH AVE 1,CHICAGO,IL,60604,42,33,42-33,1,1470,Tavern,829,Tavern - Consumption of Liquor on Premise,2428956,RENEW,,08/15/2020,10/14/2020,N,10/16/2020,10/15/2022,10/14/2020,10/14/2020,AAI,,1,41.878949977,-87.626252117,"(41.87894997697085, -87.62625211734857)"
58993-20200216,2705215,40913,1,"QUESTION MARK II, INC.",QUESTION MARK,6918 W GRAND AVE 1ST,CHICAGO,IL,60707,36,2,36-2,25,1470,Tavern,829,Tavern - Consumption of Liquor on Premise,58993,RENEW,,12/15/2019,02/11/2020,N,02/16/2020,02/15/2022,02/11/2020,02/11/2020,AAI,,,41.923682318,-87.798506068,"(41.9236823178527, -87.79850606799532)"
1695284-20200216,2705894,299710,10,"HIGHLAND PARK CVS, L.L.C.",CVS/PHARMACY #8731,400 W MADISON ST,CHICAGO,IL,60606,42,21,42-21,1,1474,Package Goods,774,Retail Sales of Packaged Liquor,1695284,RENEW,,12/15/2019,01/02/2020,N,02/16/2020,02/15/2022,01/02/2020,01/03/2020,AAI,,,41.882007859,-87.638245404,"(41.882007858778465, -87.63824540361531)"
2677686-20200128,2677686,460351,1,"215 E OHIO, INC.",MINGHIN STREETERVILLE,215 E OHIO ST 1,CHICAGO,IL,60611,42,35,42-35,18,1475,Consumption on Premises - Incidental Activity,638,Consumption of Liquor on Premises,2677686,ISSUE,06/28/2019,09/30/2019,08/21/2019,Y,01/28/2020,02/15/2022,01/28/2020,01/28/2020,AAI,,,41.892460187,-87.622036789,"(41.892460186741516, -87.62203678900626)"
1738659-20200216,2705806,288390,1,ERIE & FRANKLIN CORP.,CLUTCH BAR & RESTAURANT CHICAGO,316-318 W ERIE ST 1 AND MEZZ,CHICAGO,IL,60654,42,68,42-68,18,1470,Tavern,829,Tavern - Consumption of Liquor on Premise,1738659,RENEW,,12/15/2019,01/29/2020,N,02/16/2020,02/15/2022,01/29/2020,01/29/2020,AAI,,,41.894068923,-87.636417445,"(41.89406892311773, -87.63641744461067)"
1682553-20200416,2715416,302488,1,"ROSE DEARBORN, INC.",ROSEBUD PRIME,1 S DEARBORN ST,CHICAGO,IL,60603,42,9,42-9,1,1475,Consumption on Premises - Incidental Activity,638,Consumption of Liquor on Premises,1682553,RENEW,,02/15/2020,04/10/2020,N,04/16/2020,04/15/2022,04/10/2020,04/10/2020,AAI,,1,41.881936675,-87.62925348,"(41.88193667467421, -87.62925347991924)"
22900-20200216,2705429,86724,2,LE BORDEAUX NORTH INC.,KIKI'S BISTRO,900 N FRANKLIN ST 1 #,CHICAGO,IL,60610,27,28,27-28,18,1475,Consumption on Premises - Incidental Activity,638,Consumption of Liquor on Premises,22900,RENEW,,12/15/2019,02/14/2020,N,02/16/2020,02/15/2022,02/14/2020,02/14/2020,AAI,,,41.898997994,-87.635920673,"(41.89899799424835, -87.63592067312285)"
2594738-20201116,2752030,386886,2,GOLDEN TEARDROPS LLC,GOLDEN TEARDROPS & LONESOME ROSE,"2101-2103 N CALIFORNIA AVE 1ST, BSMT, & RFTP",CHICAGO,IL,60647,1,13,1-13,14,1481,Caterer's Liquor License,630,Catering of Liquor To Events,2594738,RENEW,,09/15/2020,10/01/2020,N,11/16/2020,11/15/2021,10/01/2020,10/02/2020,AAI,,,,,
60423-20201116,2750775,64754,1,J & Z 1 INC.,E Z INN,921 N WESTERN AVE 1ST,CHICAGO,IL,60622,1,6,1-6,12,1470,Tavern,829,Tavern - Consumption of Liquor on Premise,60423,RENEW,,09/15/2020,10/12/2020,N,11/16/2020,11/15/2022,10/12/2020,10/13/2020,AAI,,,41.898290878,-87.686760477,"(41.89829087839354, -87.6867604770308)"
2185068-20200516,2719935,63548,6,WASHINGTON SQUARE LIQUORS INC,BOSS BAR,418-420 N CLARK ST 1ST,CHICAGO,IL,60654,42,32,42-32,18,1475,Consumption on Premises - Incidental Activity,638,Consumption of Liquor on Premises,2185068,RENEW,,03/15/2020,04/09/2020,N,05/16/2020,05/15/2022,04/09/2020,04/10/2020,AAI,,,41.889904879,-87.63122455,"(41.889904879439435, -87.63122454993453)"
2583503-20210316,2770001,406651,1,"JEANINE'S WINE BAR, LLC",J9 WINE BAR,1961 N HALSTED ST,CHICAGO,IL,60614,43,3,43-3,18,1477,Outdoor Patio,784,Sale of Liquor Outdoors on Private Property,2583503,RENEW,,01/15/2021,01/16/2021,N,03/16/2021,10/15/2022,01/16/2021,01/19/2021,AAI,,,41.917706084,-87.648341887,"(41.917706084219844, -87.64834188710937)"
2718459-20200529,2718459,467184,1,"DRIP DROP FOOD & LIQUORS, INC",Drip Drop Food & Liquor,5069 W MADISON ST,CHICAGO,IL,60644,28,12,28-12,15,1474,Package Goods,774,Retail Sales of Packaged Liquor,2718459,ISSUE,03/06/2020,04/07/2020,04/03/2020,N,05/29/2020,06/15/2022,05/27/2020,05/27/2020,AAI,,,41.880296089,-87.752494198,"(41.880296089471855, -87.7524941981518)"
2589942-20191031,2589942,426630,1,"TIME OUT MARKET (CHICAGO), LLC",TIME OUT MARKET,916-926 W FULTON MARKET  1-3,CHICAGO,IL,60607,27,45,27-45,12,1050,Public Place of Amusement,746,"Public Place of Amusement, Provides Entertainment, Room Rentals and Charges a Fee",2589942,ISSUE,04/10/2018,05/01/2018,05/01/2018,Y,10/31/2019,11/15/2021,10/31/2019,10/31/2019,AAI,,,41.886870839,-87.650501194,"(41.8868708394097, -87.65050119372707)"
2138447-20200716,2730927,369394,1,CHSP TRS CHICAGO LLC,W CHICAGO-CITY CENTER,172 W ADAMS ST 1-20,CHICAGO,IL,60603,42,9,42-9,1,1475,Consumption on Premises - Incidental Activity,638,Consumption of Liquor on Premises,2138447,RENEW,,05/15/2020,07/14/2020,N,07/16/2020,07/15/2022,07/14/2020,08/20/2020,AAI,,,41.87950365,-87.632969742,"(41.879503650161986, -87.63296974156731)"
2595674-20200716,2732145,427379,1,"STAX II, INC.",STAX CAFE,522 N MILWAUKEE AVE 1,CHICAGO,IL,60642,27,1,27-1,12,1475,Consumption on Premises - Incidental Activity,638,Consumption of Liquor on Premises,2595674,RENEW,,05/15/2020,07/15/2020,N,07/16/2020,07/15/2022,07/15/2020,07/16/2020,AAI,,,41.891732865,-87.648654193,"(41.89173286514732, -87.64865419293943)"
2298932-20200516,2721914,385227,1,PARACHUTE RESTAURANT LLC,PARACHUTE,3500 N ELSTON AVE 1ST,CHICAGO,IL,60618,33,4,33-4,17,1475,Consumption on Premises - Incidental Activity,638,Consumption of Liquor on Premises,2298932,RENEW,,03/15/2020,05/07/2020,N,05/16/2020,05/15/2022,05/07/2020,05/08/2020,AAI,,,41.944745276,-87.706314298,"(41.944745276013094, -87.70631429845226)"
2578707-20200616,2727170,402246,2,"360 MANAGEMENT COMPANY, LLC",LONDONHOUSE HOTEL,85 E WACKER DR 1-23,CHICAGO,IL,60601,42,,42-,1,1477,Outdoor Patio,784,Sale of Liquor Outdoors on Private Property,2578707,RENEW,,04/15/2020,06/02/2020,N,06/16/2020,06/15/2022,06/02/2020,06/22/2020,AAI,,,41.88809629,-87.625177279,"(41.888096290381576, -87.62517727895694)"
1093141-20200616,2724702,52343,1,3733 NORTH HALSTED INC.,THE NORTH END,3733 -3735 N HALSTED ST,CHICAGO,IL,60613,46,24,46-24,19,1050,Public Place of Amusement,743,Provides Onsite Amusement or Entertainment,1093141,RENEW,,04/15/2020,06/01/2020,N,06/16/2020,06/15/2022,06/23/2020,06/24/2020,AAI,,8,41.950052664,-87.649428152,"(41.950052664237134, -87.64942815211083)"
2713112-20200629,2713112,454613,1,"ROOTS DEARBORN, LLC",ROOTS HANDMADE PIZZA - PRINTER'S ROW,744 S DEARBORN ST 1-2,CHICAGO,IL,60605,4,20,4-20,1,1481,Caterer's Liquor License,630,Catering of Liquor To Events,2713112,ISSUE,02/05/2020,06/01/2020,02/21/2020,Y,06/29/2020,07/15/2022,06/26/2020,06/26/2020,AAI,,,41.872452185,-87.629282577,"(41.87245218531338, -87.62928257680521)"
2198125-20191116,2692722,376988,1,THE BUREAU BAR LLC,"16th Street Bar, Little Bureau",75 E 16TH ST 1,CHICAGO,IL,60616,3,40,3-40,1,1470,Tavern,829,Tavern - Consumption of Liquor on Premise,2198125,RENEW,,09/15/2019,02/02/2020,N,11/16/2019,11/15/2021,02/02/2020,09/22/2020,AAI,,,41.860117063,-87.624247564,"(41.860117062767905, -87.62424756445097)"
1092788-20200416,2714658,85751,3,THE ART INSTITUTE OF CHICAGO,THE ART INSTITUTE OF CHICAGO,112 S MICHIGAN AVE,CHICAGO,IL,60603,42,33,42-33,1,1475,Consumption on Premises - Incidental Activity,638,Consumption of Liquor on Premises,1092788,RENEW,,02/15/2020,04/03/2020,N,04/16/2020,04/15/2022,04/03/2020,04/03/2020,AAI,,,41.880487543,-87.624503361,"(41.880487542666714, -87.62450336093214)"
2601362-20201016,2746687,322493,3,"SAGE RESTAURANT MANAGER, LLC",THE BLACKSTONE HOTEL,636 S MICHIGAN AVE LL-23,CHICAGO,IL,60605,42,33,42-33,1,1475,Consumption on Premises - Incidental Activity,638,Consumption of Liquor on Premises,2601362,RENEW,,08/15/2020,10/09/2020,N,10/16/2020,10/15/2022,10/09/2020,10/13/2020,AAI,,,41.873659257,-87.624359498,"(41.873659257025864, -87.62435949812338)"
2698458-20200310,2698458,463730,1,NAUTICAL HOSPITALITY GROUP LLC,ALL STAR SEAFOOD & SPORTS,730 S CLARK ST 1 UNIT D+E,CHICAGO,IL,60605,4,13,4-13,1,1470,Tavern,829,Tavern - Consumption of Liquor on Premise,2698458,ISSUE,10/21/2019,12/27/2019,12/13/2019,Y,03/10/2020,03/15/2022,03/10/2020,03/10/2020,AAI,,,41.872780614,-87.630771512,"(41.87278061406621, -87.63077151242979)"
2433065-20200216,2704812,10047,2,"PORTILLO'S HOT DOGS, LLC",PORTILLO'S HOT DOGS,520 W TAYLOR ST 1 AND 2,CHICAGO,IL,60607,25,28,25-28,1,1475,Consumption on Premises - Incidental Activity,638,Consumption of Liquor on Premises,2433065,RENEW,,12/15/2019,01/22/2020,N,02/16/2020,02/15/2022,01/22/2020,01/22/2020,AAI,,,41.869855597,-87.640270308,"(41.869855596598576, -87.64027030786521)"
2550119-20201016,2746028,85612,9,COLUMBIA COLLEGE CHICAGO,COLUMBIA COLLEGE CHICAGO,1014-1016 S MICHIGAN AVE 1 104,CHICAGO,IL,60605,4,37,4-37,1,1050,Public Place of Amusement,697,Live Theatrical and Other Live Cultural Performances (Performing Arts Venue),2550119,RENEW,,08/15/2020,09/11/2020,N,10/16/2020,10/15/2022,10/21/2020,10/22/2020,AAI,,,41.869613601,-87.624273014,"(41.869613601378546, -87.62427301428181)"
2469388-20200516,2721266,346733,4,"INTERNATIONAL ORANGE, LLC",Gilt Bar/Doughnut Vault/Ciccio Mio,226-230 W KINZIE ST,CHICAGO,IL,60654,42,14,42-14,18,1475,Consumption on Premises - Incidental Activity,638,Consumption of Liquor on Premises,2469388,RENEW,,03/15/2020,05/17/2020,N,05/16/2020,05/15/2022,05/17/2020,06/12/2020,AAI,,,41.889261623,-87.635182056,"(41.889261623396315, -87.63518205602392)"
2647111-20191022,2647111,432657,1,"GOOD TASTE THREE, INC.",COZY CORNER RESTAURANT AND PANCAKE HOUSE,5454 N HARLEM AVE 1,CHICAGO,IL,60656,41,45,41-45,16,1475,Consumption on Premises - Incidental Activity,638,Consumption of Liquor on Premises,2647111,ISSUE,02/08/2019,10/17/2019,08/08/2019,Y,10/22/2019,11/15/2021,10/22/2019,10/22/2019,AAI,,,41.979836274,-87.807127417,"(41.979836274250594, -87.8071274172471)"
1471097-20200216,2704834,11405,2,BIJAN CORPORATION,BIJAN'S,661-663 N STATE ST 1,CHICAGO,IL,60654,42,23,42-23,18,1471,Late Hour,785,"Sale of Liquor Until 4am, Monday - Saturday and 5am on Sunday",1471097,RENEW,,12/15/2019,02/13/2020,N,02/16/2020,02/15/2022,02/13/2020,02/13/2020,AAI,,,41.894186697,-87.627992022,"(41.89418669710023, -87.62799202224045)"
2698709-20200108,2698709,463898,1,ARIANNAG LLC,CINCO,1756-1758 W LAWRENCE AVE,CHICAGO,IL,60640,47,32,47-32,20,1475,Consumption on Premises - Incidental Activity,638,Consumption of Liquor on Premises,2698709,ISSUE,10/25/2019,12/04/2019,10/25/2019,N,01/08/2020,01/15/2022,01/08/2020,01/08/2020,AAI,,31,41.968942942,-87.673230293,"(41.96894294232748, -87.67323029262818)"
2694150-20191209,2694150,462427,1,LAKESIDE FOOD WINE SPIRITS LLC,LAKESIDE FOOD WINE SPIRITS,2601 N HALSTED ST,CHICAGO,IL,60614,43,22,43-22,19,1474,Package Goods,774,Retail Sales of Packaged Liquor,2694150,ISSUE,09/20/2019,10/22/2019,10/11/2019,N,12/09/2019,12/15/2021,12/09/2019,12/09/2019,AAI,,,41.929209817,-87.648746265,"(41.92920981700697, -87.64874626496409)"
1843381-20200216,2705824,292775,1,"MEXCALTITAN, INC.",LAS ISLAS BAR & GRILL,6560 W FULLERTON AVE,CHICAGO,IL,60707,36,3,36-3,25,1050,Public Place of Amusement,743,Provides Onsite Amusement or Entertainment,1843381,RENEW,,12/15/2019,02/10/2020,N,02/16/2020,02/15/2022,02/10/2020,02/11/2020,AAI,,,41.923750201,-87.78988086,"(41.92375020104243, -87.78988085962634)"
2542069-20200216,2704924,15538,28,TARGET CORPORATION,TARGET STORE T-3214,3300 N ASHLAND AVE,CHICAGO,IL,60657,47,47,47-47,19,1474,Package Goods,774,Retail Sales of Packaged Liquor,2542069,RENEW,,12/15/2019,02/05/2020,N,02/16/2020,02/15/2022,02/05/2020,02/06/2020,AAI,,27,41.941565858,-87.668860403,"(41.94156585778224, -87.6688604029088)"
2093021-20200616,2725767,313178,2,"ATRIUM EVENTS, LLC",ATRIUM EVENTS,4325-4343 N RAVENSWOOD AVE LL,CHICAGO,IL,60613,47,39,47-39,19,1475,Consumption on Premises - Incidental Activity,638,Consumption of Liquor on Premises,2093021,RENEW,,04/15/2020,06/17/2020,N,06/16/2020,06/15/2022,06/17/2020,06/18/2020,AAI,,31,41.960476305,-87.673799318,"(41.96047630495004, -87.67379931767802)"
2049803-20210116,2760967,355732,1,"POST TIME CATERING, INC.",111TH STREET OTB,11203 S CORLISS AVE 1,CHICAGO,IL,60628,9,37,9-37,5,1475,Consumption on Premises - Incidental Activity,638,Consumption of Liquor on Premises,2049803,RENEW,,11/15/2020,01/15/2021,N,01/16/2021,01/15/2023,01/15/2021,01/19/2021,AAI,,,41.690742007,-87.600677902,"(41.69074200662608, -87.60067790215122)"
2004371-20200516,2718978,147,85,WALGREEN CO.,Walgreens # 07687,3320 W FULLERTON AVE 1,CHICAGO,IL,60647,35,34,35-34,14,1474,Package Goods,774,Retail Sales of Packaged Liquor,2004371,RENEW,,03/15/2020,05/01/2020,N,05/16/2020,05/15/2022,05/01/2020,05/05/2020,AAI,,,41.924777419,-87.711693535,"(41.9247774193223, -87.71169353548046)"
2391301-20191116,2690736,15640,2,"COLON ENTERPRISES, INC.",DAISIES,2523 N MILWAUKEE AVE 1,CHICAGO,IL,60647,32,30,32-30,14,1477,Outdoor Patio,784,Sale of Liquor Outdoors on Private Property,2391301,RENEW,,09/15/2019,10/30/2019,N,11/16/2019,11/15/2021,10/30/2019,12/12/2019,AAI,,,41.927285463,-87.704259563,"(41.92728546268809, -87.70425956334667)"
2003534-20200516,2719253,7551,42,"BOND DRUG COMPANY OF ILLINOIS, LLC",WALGREENS #2840,1500 W WILSON AVE  1 ST,CHICAGO,IL,60640,47,34,47-34,19,1474,Package Goods,774,Retail Sales of Packaged Liquor,2003534,RENEW,,03/15/2020,04/29/2020,N,05/16/2020,05/15/2022,04/29/2020,05/05/2020,AAI,,,,,
2283741-20200116,2702435,361654,2,NATIVE FOODS CLARK STREET LLC,NATIVE FOODS CAFE,218 S CLARK ST,CHICAGO,IL,60604,42,9,42-9,1,1475,Consumption on Premises - Incidental Activity,638,Consumption of Liquor on Premises,2283741,RENEW,,11/15/2019,01/04/2020,N,01/16/2020,01/15/2022,01/04/2020,01/06/2020,AAI,,,41.878814822,-87.630950486,"(41.87881482219489, -87.63095048621103)"
2246747-20191116,2692746,379784,1,ASIAN OUTPOST CORP.,ASIAN OUTPOST HAWAIIAN HIDEOUT,1313-1315 S WABASH AVE,CHICAGO,IL,60605,3,40,3-40,1,1475,Consumption on Premises - Incidental Activity,638,Consumption of Liquor on Premises,2246747,RENEW,,09/15/2019,10/03/2019,N,11/16/2019,11/15/2021,10/03/2019,10/24/2019,AAI,,,41.865354332,-87.625639157,"(41.865354331695414, -87.62563915695526)"
2246915-20200416,2713918,8970,110,"COMPASS GROUP USA, INC.",ESPRESSAMENTE ILLY/CITYFRONT CAFE,455 N CITYFRONT PLAZA DR 1ST C,CHICAGO,IL,60611,42,53,42-53,18,1475,Consumption on Premises - Incidental Activity,638,Consumption of Liquor on Premises,2246915,RENEW,,02/15/2020,03/12/2020,N,04/16/2020,04/15/2022,03/12/2020,03/13/2020,AAI,,,41.890001335,-87.621438688,"(41.890001335214684, -87.62143868830125)"
2703710-20200417,2703710,462593,1,J FRESHMART INC.,J FRESHMART,2411 S WALLACE ST,CHICAGO,IL,60616,11,37,11-37,9,1474,Package Goods,774,Retail Sales of Packaged Liquor,2703710,ISSUE,11/22/2019,02/18/2020,02/14/2020,N,04/17/2020,05/15/2022,04/17/2020,04/17/2020,AAI,,,41.848945135,-87.642090597,"(41.848945134619505, -87.64209059720537)"
2457867-20191216,2696788,347810,1,"EFEBINA'S CAFE, LLC",Twisted Cantina,1640 S BLUE ISLAND AVE 1ST,CHICAGO,IL,60608,25,24,25-24,12,1475,Consumption on Premises - Incidental Activity,638,Consumption of Liquor on Premises,2457867,RENEW,,10/15/2019,01/29/2020,N,12/16/2019,12/15/2021,01/29/2020,02/24/2020,AAI,,,41.858709158,-87.660604008,"(41.85870915813739, -87.6606040076504)"
1043327-20200116,2701642,202011,1,"NUTZY,  INC.",LAWLOR'S BAR,6854 W ARCHER AVE 1,CHICAGO,IL,60638,23,47,23-47,8,1470,Tavern,829,Tavern - Consumption of Liquor on Premise,1043327,RENEW,,11/15/2019,01/14/2020,N,01/16/2020,01/15/2022,01/14/2020,02/27/2020,AAI,,,41.792223628,-87.793791368,"(41.79222362767739, -87.79379136801617)"
2104241-20191216,2696883,363979,1,6122 CLARK LLC,CHICAGO FUTSAL ACADEMY,6122 N CLARK ST,CHICAGO,IL,60660,40,27,40-27,24,1050,Public Place of Amusement,743,Provides Onsite Amusement or Entertainment,2104241,RENEW,,10/15/2019,12/10/2019,N,12/16/2019,12/15/2021,12/12/2019,12/13/2019,AAI,,,41.993304187,-87.67026687,"(41.99330418707169, -87.67026687020775)"
1380525-20191216,2696290,265429,1,"SABINO'S, INC.",LUCIANO'S GROCERY-18TH ST,1714 W 18TH ST,CHICAGO,IL,60608,25,19,25-19,12,1474,Package Goods,774,Retail Sales of Packaged Liquor,1380525,RENEW,,10/15/2019,12/04/2019,N,12/16/2019,12/15/2021,12/04/2019,02/14/2020,AAI,,,41.857856568,-87.669419596,"(41.857856567514325, -87.66941959556328)"
17069-20200116,2700683,7008,1,"PAP'S TAP, INC.",PAP TAP,5532 S NARRAGANSETT AVE 1ST,CHICAGO,IL,60638,13,11,13-11,8,1470,Tavern,829,Tavern - Consumption of Liquor on Premise,17069,RENEW,,11/15/2019,01/03/2020,N,01/16/2020,01/15/2022,01/03/2020,01/06/2020,AAI,,,41.791341151,-87.781916515,"(41.79134115145793, -87.78191651512162)"
2708980-20200828,2708980,465419,1,SHREE NARNARAYAN DEV INC.,DIVERSEY PRESTIGE LIQUORS,946 W DIVERSEY PKWY,CHICAGO,IL,60614,44,29,44-29,19,1474,Package Goods,774,Retail Sales of Packaged Liquor,2708980,ISSUE,12/30/2019,02/19/2020,01/22/2020,Y,08/28/2020,09/15/2022,08/28/2020,08/28/2020,AAI,,17,41.932757864,-87.653330733,"(41.9327578636931, -87.65333073313751)"
